,safegraph_place_id,location_name,region,postal_code,naics_code,raw_visit_counts,median_dwell,bucketed_dwell_times,latitude,longitude,state,stateFIPS,countyFIPS,countyName,CBGFIPS
26,sg:00f6792e8a084dd7965b54d3793f4147,Dragon Palace,NH,3465,722511.0,5,12.0,"{""<5"":0,""5-20"":4,""21-60"":0,""61-240"":1,"">240"":0}",42.831216999999995,-72.184747,NH,33.0,33005.0,Cheshire County,330059708003.0
400,sg:0c68fa3725874bfd9a28fa0fbff44e45,Aroma Joe's,NH,3867,722511.0,65,7.0,"{""<5"":2,""5-20"":41,""21-60"":6,""61-240"":8,"">240"":8}",43.328176,-71.003428,NH,33.0,33017.0,Strafford County,330170846001.0
1040,sg:21520b57122c4be3bd2bab33c06bc2c8,Cristy's Pizza,NH,3842,722511.0,28,10.0,"{""<5"":1,""5-20"":22,""21-60"":3,""61-240"":0,"">240"":2}",42.904312,-70.814406,NH,33.0,33015.0,Rockingham County,330150650081.0
2240,sg:48d5e48447a04006989acd98fd020df0,St Nicholas Orthodox Church,NH,3104,813110.0,3,16.0,"{""<5"":0,""5-20"":2,""21-60"":0,""61-240"":1,"">240"":0}",42.994937,-71.409024,NH,33.0,33011.0,Hillsborough County,330110010001.0
2965,sg:6093b45eaa564ab680b9df1fbdb5a0a1,Tire Warehouse,NH,3833,441310.0,6,35.0,"{""<5"":0,""5-20"":1,""21-60"":3,""61-240"":2,"">240"":0}",42.995528,-70.972711,NH,33.0,33015.0,Rockingham County,330150610012.0
3008,sg:61fe7ce8993d4533b6dee84781de229e,Black Paw Studio,NH,3031,448120.0,2,406.5,"{""<5"":0,""5-20"":0,""21-60"":0,""61-240"":1,"">240"":1}",42.818915000000004,-71.579013,NH,33.0,33011.0,Hillsborough County,330110152004.0
3229,sg:696a278d8eaa49518a330729bbb1b960,Trinity Christian School,NH,3301,611110.0,6,97.0,"{""<5"":0,""5-20"":0,""21-60"":1,""61-240"":4,"">240"":1}",43.190678999999996,-71.55064,NH,33.0,33013.0,Merrimack County,330130325002.0
3895,sg:8041f2fbd14c44a09f22e2ab40f94a23,Chambers Park,NH,3784,712190.0,2,16.0,"{""<5"":0,""5-20"":1,""21-60"":1,""61-240"":0,"">240"":0}",43.688478,-72.300195,NH,33.0,33009.0,Grafton County,330099617005.0
3953,sg:82736815d46947e78783f78e9fc48eb0,Brentwood School,NH,3054,611110.0,9,14.0,"{""<5"":0,""5-20"":7,""21-60"":1,""61-240"":1,"">240"":0}",42.862407,-71.49849499999999,NH,33.0,33011.0,Hillsborough County,330110141002.0
4038,sg:85eb79f13b454994b55afcc8f7e1dc1f,Linda's Breakfast Place,NH,3874,722511.0,1,12.0,"{""<5"":0,""5-20"":1,""21-60"":0,""61-240"":0,"">240"":0}",42.902501,-70.867981,NH,33.0,33015.0,Rockingham County,330150630022.0
4192,sg:8c196eb575404d6babe30ad060631e2b,Studio 7 Fitness and Wellness LLC,NH,3870,713940.0,4,16.5,"{""<5"":0,""5-20"":2,""21-60"":1,""61-240"":1,"">240"":0}",43.007046,-70.806669,NH,33.0,33015.0,Rockingham County,330150710003.0
4233,sg:8e2317038e1b420ebb118e8ce3a9016d,Epping Carwash,NH,3042,811192.0,2,15.0,"{""<5"":0,""5-20"":2,""21-60"":0,""61-240"":0,"">240"":0}",43.063053000000004,-71.014922,NH,33.0,33015.0,Rockingham County,330150590002.0
4477,sg:96e91786884d43b59cd91b00940bcb5f,All Paws & Pets Crematory,NH,3054,812910.0,4,37.0,"{""<5"":0,""5-20"":1,""21-60"":2,""61-240"":0,"">240"":1}",42.803501000000004,-71.482586,NH,33.0,33011.0,Hillsborough County,330110141004.0
4492,sg:978dafb948334685bcecded21bba3ab2,Days Inn,NH,3431,721110.0,10,210.0,"{""<5"":0,""5-20"":2,""21-60"":0,""61-240"":4,"">240"":4}",42.924284,-72.305306,NH,33.0,33005.0,Cheshire County,330059714021.0
4580,sg:9aa0d09c1f5c488f9a7ee2e4f5d85d03,The Village Gun Store,NH,3598,451110.0,31,10.0,"{""<5"":2,""5-20"":19,""21-60"":6,""61-240"":3,"">240"":1}",44.372983000000005,-71.611568,NH,33.0,33007.0,Coos County,330079511002.0
4788,sg:a1a6fdf1d7fa4460bfda454c07aac067,Nashua Outdoor Power Equipment,NH,3031,444130.0,16,95.5,"{""<5"":0,""5-20"":5,""21-60"":3,""61-240"":5,"">240"":3}",42.810784999999996,-71.575477,NH,33.0,33011.0,Hillsborough County,330110152004.0
5007,sg:a99d54208f35480bb5d1c37cb38d9064,CRS Mechanical,NH,3301,444130.0,3,14.0,"{""<5"":0,""5-20"":3,""21-60"":0,""61-240"":0,"">240"":0}",43.204557,-71.514276,NH,33.0,33013.0,Merrimack County,330130441003.0
5171,sg:af6a4763b5ce4e4f8c199ca75aa1e7ed,J.Crew,NH,3860,448140.0,1,7.0,"{""<5"":0,""5-20"":1,""21-60"":0,""61-240"":0,"">240"":0}",44.023407,-71.112576,NH,33.0,33003.0,Carroll County,330039553005.0
6117,sg:d20b3ccb9f9f49deb669e493c2789de1,Bedford Ambulatory Surgical Center,NH,3110,621111.0,9,114.0,"{""<5"":0,""5-20"":2,""21-60"":1,""61-240"":2,"">240"":4}",42.96066,-71.476776,NH,33.0,33011.0,Hillsborough County,330110029022.0
6564,sg:e2a500f8e40443f8bf83e8aa2db02271,Tradesman Auto Body,NH,3076,811121.0,1,12.0,"{""<5"":0,""5-20"":1,""21-60"":0,""61-240"":0,"">240"":0}",42.707982,-71.318786,NH,33.0,33011.0,Hillsborough County,330112002001.0
6584,sg:e3c704d80c8947f799b53191c9f31b17,Goodwin Park,NH,3766,712190.0,6,18.0,"{""<5"":2,""5-20"":2,""21-60"":1,""61-240"":0,"">240"":1}",43.6311,-72.246756,NH,33.0,33009.0,Grafton County,330099618005.0
6598,sg:e457667e473343169e8611c8b05ddfc2,Crow's Feet Antiques,NH,3581,453310.0,3,11.0,"{""<5"":0,""5-20"":2,""21-60"":0,""61-240"":1,"">240"":0}",44.38637,-71.17311,NH,33.0,33007.0,Coos County,330079509002.0
6678,sg:e6d88381bbb8437aa9e4d48bff0c4e7e,Heads Pond Trail,NH,3106,712190.0,3,222.0,"{""<5"":0,""5-20"":1,""21-60"":0,""61-240"":1,"">240"":1}",43.103034,-71.445145,NH,33.0,33013.0,Merrimack County,330130442002.0
7011,sg:f3f3e9e9532a420ca6c71dcd366e24e0,Circle K,NH,3253,445120.0,16,17.5,"{""<5"":1,""5-20"":9,""21-60"":1,""61-240"":1,"">240"":4}",43.661175,-71.493447,NH,33.0,33001.0,Belknap County,330019652002.0
7303,sg:fecb71a1d82441ae865ab5d1bfcfa22f,Pizza Chef,NH,3216,722511.0,16,18.0,"{""<5"":1,""5-20"":9,""21-60"":5,""61-240"":0,"">240"":1}",43.436411,-71.819293,NH,33.0,33013.0,Merrimack County,330130425002.0
7725,sg:0c5e0f46ae984a0792a3f893f8078605,Mobil,NH,3848,447110.0,7,5.0,"{""<5"":1,""5-20"":6,""21-60"":0,""61-240"":0,"">240"":0}",42.915203999999996,-71.059413,NH,33.0,33015.0,Rockingham County,330151051001.0
8153,sg:1a26963b7f2847ba935975cfaa9ea802,Speedway,NH,3301,447110.0,60,8.0,"{""<5"":8,""5-20"":38,""21-60"":6,""61-240"":3,"">240"":5}",43.193882,-71.527654,NH,33.0,33013.0,Merrimack County,330130322002.0
8215,sg:1c343ee73915497daba0fcec2080e5c2,Somerville Street Market,NH,3103,722511.0,22,191.5,"{""<5"":0,""5-20"":7,""21-60"":2,""61-240"":3,"">240"":10}",42.976582,-71.439915,NH,33.0,33011.0,Hillsborough County,330110018005.0
8472,sg:2445bcb5416b443cbf3074a6ea786528,Wild Meadow Canoes & Kayaks,NH,3226,441222.0,1,6.0,"{""<5"":0,""5-20"":1,""21-60"":0,""61-240"":0,"">240"":0}",43.709691,-71.45996600000001,NH,33.0,33003.0,Carroll County,330039563004.0
8523,sg:25c2a15fb7c0481a93d57264b08837c0,State of New Hampshire,NH,3301,712120.0,61,98.0,"{""<5"":0,""5-20"":19,""21-60"":10,""61-240"":15,"">240"":17}",43.206227,-71.538078,NH,33.0,33013.0,Merrimack County,330130323001.0
9002,sg:36103b4000544c4ca99df92e9cf7ab8e,Beech Street School,NH,3103,611110.0,31,126.0,"{""<5"":1,""5-20"":8,""21-60"":5,""61-240"":5,"">240"":12}",42.984314000000005,-71.45495799999999,NH,33.0,33011.0,Hillsborough County,330110015002.0
9035,sg:376b4ec2ab4648c983a39642c443a731,KinderCare,NH,3062,624410.0,8,109.0,"{""<5"":1,""5-20"":2,""21-60"":1,""61-240"":1,"">240"":3}",42.733411,-71.475225,NH,33.0,33011.0,Hillsborough County,330110113001.0
9114,sg:39baf12d3ad34031bba28951ff15318c,Best Fitness,NH,3062,713940.0,16,124.0,"{""<5"":0,""5-20"":1,""21-60"":5,""61-240"":5,"">240"":5}",42.737201,-71.482878,NH,33.0,33011.0,Hillsborough County,330110113001.0
9133,sg:3a4f3e7dd2ec484ba011a58934ac216d,NAPA Auto Parts,NH,3458,441310.0,6,15.5,"{""<5"":0,""5-20"":5,""21-60"":0,""61-240"":1,"">240"":0}",42.866738,-71.954001,NH,33.0,33011.0,Hillsborough County,330110230003.0
9404,sg:432c562a986440af82f414f33ab59861,Veracka's Auto Service,NH,3768,811111.0,28,593.5,"{""<5"":0,""5-20"":0,""21-60"":0,""61-240"":4,"">240"":24}",43.813941,-72.15209399999999,NH,33.0,33009.0,Grafton County,330099609002.0
9450,sg:44fd58ad0d16423689efffb253c79ad7,Walgreens,NH,3053,446110.0,64,8.0,"{""<5"":5,""5-20"":50,""21-60"":7,""61-240"":2,"">240"":0}",42.844749,-71.362039,NH,33.0,33015.0,Rockingham County,330150039021.0
9506,sg:46cea876306943c8bab21ee7aacb9d18,Fireworks,NH,3431,722511.0,6,993.5,"{""<5"":1,""5-20"":1,""21-60"":0,""61-240"":0,"">240"":4}",42.93318,-72.277916,NH,33.0,33005.0,Cheshire County,330059711002.0
9629,sg:4b1744e56add4009b82a53ee485ebbd6,Heidi Sauer PA C,NH,3801,812199.0,18,205.0,"{""<5"":0,""5-20"":0,""21-60"":6,""61-240"":4,"">240"":8}",43.062344,-70.794085,NH,33.0,33015.0,Rockingham County,330151074001.0
9996,sg:581907cf73094a8cb898ff489160a0d4,603 Performance and Maintenance of Londonderry,NH,3053,811192.0,8,14.0,"{""<5"":1,""5-20"":5,""21-60"":0,""61-240"":2,"">240"":0}",42.917617,-71.403803,NH,33.0,33015.0,Rockingham County,330150037031.0
11131,sg:806f1725f0014168aa56c9556ada72ad,Chiropractic Works,NH,3051,621310.0,10,26.5,"{""<5"":0,""5-20"":4,""21-60"":4,""61-240"":2,"">240"":0}",42.759633,-71.431533,NH,33.0,33011.0,Hillsborough County,330110122004.0
11225,sg:8341988286a04d41b4b71b1b989ce42d,Hannaford Supermarkets,NH,3038,445110.0,63,13.0,"{""<5"":5,""5-20"":34,""21-60"":15,""61-240"":5,"">240"":4}",42.900292,-71.33734799999999,NH,33.0,33015.0,Rockingham County,330150033021.0
11455,sg:8b2afdbba870429a8da5e4269582210a,Crossroads Academy,NH,3768,611110.0,1,150.0,"{""<5"":0,""5-20"":0,""21-60"":0,""61-240"":1,"">240"":0}",43.779144,-72.182014,NH,33.0,33009.0,Grafton County,330099609003.0
11636,sg:92a9f8c67be644d9a9b4ebd2d453cfcd,Danbury Christian Church,NH,3230,813110.0,10,607.5,"{""<5"":0,""5-20"":1,""21-60"":0,""61-240"":1,"">240"":8}",43.50528,-71.873715,NH,33.0,33013.0,Merrimack County,330130415002.0
11910,sg:9cec70b67cae4925a62d834ec3212efe,CrossFit,NH,3264,713940.0,5,33.0,"{""<5"":0,""5-20"":2,""21-60"":2,""61-240"":1,"">240"":0}",43.770329,-71.755313,NH,33.0,33009.0,Grafton County,330099610004.0
11973,sg:9efc13d7224a4dd8b6f5db1a0d8452ee,The Counseling Center Peterborough,NH,3458,621330.0,10,55.5,"{""<5"":0,""5-20"":5,""21-60"":0,""61-240"":3,"">240"":2}",42.877953999999995,-71.950385,NH,33.0,33011.0,Hillsborough County,330110230004.0
12307,sg:aa600706eb1b40aba1ae75b993cd0b4e,Pembroke Wellness Center,NH,3275,621111.0,16,14.5,"{""<5"":2,""5-20"":7,""21-60"":2,""61-240"":2,"">240"":3}",43.13069,-71.45124,NH,33.0,33013.0,Merrimack County,330130032005.0
12388,sg:acff3560fbe443edbb03e8f79fb14286,Mason Racing,NH,3766,441228.0,15,20.0,"{""<5"":1,""5-20"":7,""21-60"":1,""61-240"":0,"">240"":6}",43.641603,-72.25484200000001,NH,33.0,33009.0,Grafton County,330099618004.0
12770,sg:bbd99940d0e5435a9c5f10ec4f9c4eb3,WineNot Boutique,NH,3060,713940.0,15,19.0,"{""<5"":0,""5-20"":8,""21-60"":6,""61-240"":1,"">240"":0}",42.759151,-71.464968,NH,33.0,33011.0,Hillsborough County,330110107001.0
12886,sg:c0004f89f7614a72b59cd6137bf60cbb,Riverhouse Cafe,NH,3055,722511.0,3,43.0,"{""<5"":0,""5-20"":0,""21-60"":2,""61-240"":1,"">240"":0}",42.835494,-71.650437,NH,33.0,33011.0,Hillsborough County,330110162012.0
13093,sg:c6b63cf12ca741868333e9f7692f21a7,McDonald's,NH,3077,722513.0,123,9.0,"{""<5"":11,""5-20"":92,""21-60"":7,""61-240"":6,"">240"":7}",43.035428,-71.163255,NH,33.0,33015.0,Rockingham County,330150550022.0
13224,sg:cbac99b4d6c9430c82451ce4fb4d4568,Poppy Seed Studio,NH,3878,453220.0,3,6.0,"{""<5"":0,""5-20"":2,""21-60"":0,""61-240"":1,"">240"":0}",43.261887,-70.864901,NH,33.0,33017.0,Strafford County,330170830015.0
13710,sg:dc49b6e5c3d64cc38b605327356c6cef,Little Expressions Child Care And Preschool,NH,3077,624410.0,4,51.5,"{""<5"":0,""5-20"":2,""21-60"":0,""61-240"":2,"">240"":0}",43.041853,-71.187423,NH,33.0,33015.0,Rockingham County,330150550022.0
13872,sg:e2ad395b66874bc18d9c8423c180a3ed,The Book Cellar,NH,3063,451211.0,182,22.0,"{""<5"":8,""5-20"":79,""21-60"":76,""61-240"":18,"">240"":1}",42.800140999999996,-71.541848,NH,33.0,33011.0,Hillsborough County,330110102001.0
13929,sg:e52c945a551a4a159b94cc73e22c28bd,Jeffrey Scott Fine Jewelers,NH,3031,448310.0,2,30.0,"{""<5"":0,""5-20"":1,""21-60"":1,""61-240"":0,"">240"":0}",42.804936,-71.564574,NH,33.0,33011.0,Hillsborough County,330110152004.0
14248,sg:f02953bf2abb435ba5f9ee50265d532f,Regency Heights,NH,3102,522110.0,16,39.0,"{""<5"":0,""5-20"":4,""21-60"":7,""61-240"":5,"">240"":0}",43.035329,-71.48344300000001,NH,33.0,33011.0,Hillsborough County,330110002032.0
14503,sg:f95356fff85641e78636dc4e63adcab8,Goffstown Public Library,NH,3045,519120.0,2,4.5,"{""<5"":1,""5-20"":1,""21-60"":0,""61-240"":0,"">240"":0}",43.020585,-71.599962,NH,33.0,33011.0,Hillsborough County,330110027023.0
14895,sg:070817c9142348d18255cc7a4ceb154e,Fastenal,NH,3062,444130.0,28,130.5,"{""<5"":0,""5-20"":5,""21-60"":6,""61-240"":10,"">240"":7}",42.739195,-71.490371,NH,33.0,33011.0,Hillsborough County,330110114021.0
14898,sg:07466b1baf7449cbb33b7383c275ef16,Sherwin-Williams,NH,3743,444120.0,1,4.0,"{""<5"":1,""5-20"":0,""21-60"":0,""61-240"":0,"">240"":0}",43.373673,-72.327833,NH,33.0,33019.0,Sullivan County,330199759011.0
15398,sg:1890212f93da4257a1f0e7f86db814d6,Dickerson Jas F DMD,NH,3079,621210.0,1,9.0,"{""<5"":0,""5-20"":1,""21-60"":0,""61-240"":0,"">240"":0}",42.793167,-71.187612,NH,33.0,33015.0,Rockingham County,330151002003.0
15402,sg:18a1a667a66c457cad74974caf98dddd,Merrill Johnson Early Childhood Program,NH,3079,624410.0,1,38.0,"{""<5"":0,""5-20"":0,""21-60"":1,""61-240"":0,"">240"":0}",42.790161,-71.20360600000001,NH,33.0,33015.0,Rockingham County,330151002003.0
15666,sg:2158fb0c457f49afb506d83eaf41b13e,Shiloh Community Church,NH,3102,813110.0,4,5.5,"{""<5"":1,""5-20"":3,""21-60"":0,""61-240"":0,"">240"":0}",42.991321,-71.497853,NH,33.0,33011.0,Hillsborough County,330110022001.0
15831,sg:2680d96c23f44c8493fb080d7f3c012f,Tractor Supply Co.,NH,3864,444130.0,33,14.0,"{""<5"":0,""5-20"":22,""21-60"":3,""61-240"":2,"">240"":6}",43.702729,-71.112433,NH,33.0,33003.0,Carroll County,330039559001.0
15973,sg:2b19b1924d3541dfa3e42c31a8e24135,Kids By The Common,NH,3304,624410.0,4,8.0,"{""<5"":1,""5-20"":3,""21-60"":0,""61-240"":0,"">240"":0}",43.131626000000004,-71.547489,NH,33.0,33013.0,Merrimack County,330130310012.0
16320,sg:363a5bbecc7b47fa954e644a107147c2,Techpros Firearms,NH,3570,451110.0,18,52.5,"{""<5"":1,""5-20"":6,""21-60"":3,""61-240"":6,"">240"":2}",44.469747999999996,-71.166434,NH,33.0,33007.0,Coos County,330079506002.0
16334,sg:36b9aa0d573e4d3da462c59ac84d9d4e,Brandy Brow Auto Parts,NH,3865,441310.0,6,9.5,"{""<5"":1,""5-20"":4,""21-60"":1,""61-240"":0,"">240"":0}",42.824653000000005,-71.058006,NH,33.0,33015.0,Rockingham County,330151011004.0
16592,sg:3f091586f0e54408a51142f5f90482ce,Genesis HealthCare,NH,3458,621498.0,8,145.0,"{""<5"":0,""5-20"":1,""21-60"":1,""61-240"":5,"">240"":1}",42.90826,-71.936109,NH,33.0,33011.0,Hillsborough County,330110230001.0
17174,sg:518cd1d18e3242748887b9a8ea912563,McDonald's,NH,3801,722513.0,89,9.0,"{""<5"":9,""5-20"":58,""21-60"":13,""61-240"":4,"">240"":5}",43.092228999999996,-70.79957399999999,NH,33.0,33015.0,Rockingham County,330151075001.0
17188,sg:5247c87317004bc8a819f33b2cf48289,Quantum Tones Healing,NH,3570,621330.0,4,13.5,"{""<5"":0,""5-20"":3,""21-60"":1,""61-240"":0,"">240"":0}",44.483764,-71.162566,NH,33.0,33007.0,Coos County,330079506001.0
17399,sg:59864e6bfab943aa84c8f960c148defb,Sierra Trading Post,NH,3060,451110.0,16,28.5,"{""<5"":1,""5-20"":4,""21-60"":7,""61-240"":4,"">240"":0}",42.713215000000005,-71.44578800000001,NH,33.0,33011.0,Hillsborough County,330110111022.0
17432,sg:5abdb549f7dd43f69272d3511c9cfd5b,Lexie's Exeter,NH,3833,722511.0,31,10.0,"{""<5"":3,""5-20"":20,""21-60"":3,""61-240"":5,"">240"":0}",42.982341,-70.957435,NH,33.0,33015.0,Rockingham County,330151062003.0
17692,sg:63d2276fac484b8bbd2377be20a2486b,O'Reilly Auto Parts,NH,3276,441310.0,16,34.5,"{""<5"":2,""5-20"":6,""21-60"":1,""61-240"":4,"">240"":3}",43.457254,-71.561892,NH,33.0,33001.0,Belknap County,330019655983.0
17898,sg:697b32656a934af0835f828aa78ab3b6,Hong Kong City Restaurant,NH,3109,722511.0,23,361.0,"{""<5"":0,""5-20"":3,""21-60"":3,""61-240"":3,"">240"":14}",42.985469,-71.42022800000001,NH,33.0,33011.0,Hillsborough County,330110011002.0
17949,sg:6b807716470f49fe85268c833e0b4bdf,Blackbird Market & Deli,NH,3281,722511.0,25,13.0,"{""<5"":1,""5-20"":13,""21-60"":3,""61-240"":3,"">240"":5}",43.112383,-71.74308,NH,33.0,33011.0,Hillsborough County,330110210001.0
18048,sg:6f29116b0f784c6cb8c5106969ccb5ce,The World Schools,NH,3062,611110.0,16,287.5,"{""<5"":0,""5-20"":4,""21-60"":2,""61-240"":0,"">240"":10}",42.710138,-71.463138,NH,33.0,33011.0,Hillsborough County,330110112001.0
18477,sg:7f5c972a47224d0db631cd1f34775dbe,Affordable Firearms,NH,3076,451110.0,6,10.0,"{""<5"":1,""5-20"":4,""21-60"":0,""61-240"":0,"">240"":1}",42.720753,-71.319282,NH,33.0,33011.0,Hillsborough County,330112003002.0
18557,sg:81d66aaf9aaf4a0bba874c9a1e842a48,Keytown Irving Service & Towing,NH,3253,488410.0,2,29.0,"{""<5"":0,""5-20"":1,""21-60"":1,""61-240"":0,"">240"":0}",43.57819,-71.45405,NH,33.0,33001.0,Belknap County,330019662003.0
18560,sg:81dd4ebefad2434686c5f426a7753bff,At Om Yoga,NH,3301,713940.0,4,28.0,"{""<5"":0,""5-20"":1,""21-60"":2,""61-240"":1,"">240"":0}",43.205401,-71.535638,NH,33.0,33013.0,Merrimack County,330130323001.0
19133,sg:964cd3cf763447be997c62d71dd5c37e,Jacques Flower Shop,NH,3102,453110.0,5,6.0,"{""<5"":1,""5-20"":3,""21-60"":0,""61-240"":0,"">240"":1}",42.991991,-71.50353199999999,NH,33.0,33011.0,Hillsborough County,330110028004.0
19371,sg:9f6a0f70aaaa4d07aa1b84b31e93257e,McDonald's,NH,3301,722513.0,179,8.0,"{""<5"":10,""5-20"":128,""21-60"":14,""61-240"":8,"">240"":19}",43.19715,-71.53125899999999,NH,33.0,33013.0,Merrimack County,330130322002.0
19775,sg:adaaa87f98d04e6bbe089b1df43668aa,McGirl Barton E DDS,NH,3867,621210.0,4,119.5,"{""<5"":0,""5-20"":1,""21-60"":1,""61-240"":2,"">240"":0}",43.296067,-70.960337,NH,33.0,33017.0,Strafford County,330170841004.0
20060,sg:b8f4d38dd2a846e3924b835865fe1390,Schrupp Troy DDS,NH,3249,621210.0,3,64.0,"{""<5"":0,""5-20"":1,""21-60"":0,""61-240"":2,"">240"":0}",43.545417,-71.403238,NH,33.0,33001.0,Belknap County,330019664025.0
20488,sg:c947f9c9020d4ba586adc1c47707b471,Wolfeboro OB Gyn,NH,3894,621111.0,13,19.0,"{""<5"":0,""5-20"":7,""21-60"":0,""61-240"":2,"">240"":4}",43.58195,-71.200654,NH,33.0,33003.0,Carroll County,330039561005.0
20726,sg:d1deaa7bc64c40bba1f4547359e6d9d5,Dynamic Mobile Repair,NH,3835,811111.0,5,8.0,"{""<5"":0,""5-20"":5,""21-60"":0,""61-240"":0,"">240"":0}",43.366336,-71.039192,NH,33.0,33017.0,Strafford County,330170870003.0
20871,sg:d6fe2a3ee4e340c69b8d790df21413da,Squam Lake MarketPlace,NH,3245,722515.0,6,168.5,"{""<5"":0,""5-20"":2,""21-60"":1,""61-240"":0,"">240"":3}",43.731065,-71.587756,NH,33.0,33009.0,Grafton County,330099611004.0
20954,sg:d9e7fb771dcf4b5c8adff6e01b49159a,Precision BMW Repair,NH,3833,811111.0,6,380.5,"{""<5"":0,""5-20"":0,""21-60"":1,""61-240"":0,"">240"":5}",43.006576,-71.078362,NH,33.0,33015.0,Rockingham County,330150600001.0
21154,sg:e1027cfdcc2246e9b7311294a583b086,Muse Gifts & Books,NH,3455,453220.0,8,244.5,"{""<5"":0,""5-20"":1,""21-60"":2,""61-240"":1,"">240"":4}",42.904098,-72.208985,NH,33.0,33005.0,Cheshire County,330059708001.0
21746,sg:f6b2fa1ac605455dbd03cb18c9605be9,Lia Gormley Fine Jewelry,NH,3801,448310.0,1,18.0,"{""<5"":0,""5-20"":1,""21-60"":0,""61-240"":0,"">240"":0}",43.077493,-70.757819,NH,33.0,33015.0,Rockingham County,330150691001.0
21794,sg:f873295112594065ae635bec872e4b7e,CVS,NH,3458,446110.0,62,10.5,"{""<5"":1,""5-20"":48,""21-60"":11,""61-240"":1,"">240"":1}",42.875648999999996,-71.960647,NH,33.0,33011.0,Hillsborough County,330110230003.0
22160,sg:05d6443d4458405cb6addbe223518c71,Smith Bridge,NH,3264,712120.0,3,12.0,"{""<5"":0,""5-20"":2,""21-60"":1,""61-240"":0,"">240"":0}",43.774208,-71.736991,NH,33.0,33009.0,Grafton County,330099610003.0
22414,sg:0dd785b6111f4e2e8919bfed061ae112,Uno Chicago Grill,NH,3276,722511.0,18,22.5,"{""<5"":0,""5-20"":8,""21-60"":7,""61-240"":2,"">240"":1}",43.458715999999995,-71.560828,NH,33.0,33001.0,Belknap County,330019655983.0
22884,sg:1c56d31cb58343589f0bd6c1babbfb7b,Studio LAVO,NH,3104,446120.0,7,25.0,"{""<5"":0,""5-20"":3,""21-60"":3,""61-240"":0,"">240"":1}",43.006269,-71.4639,NH,33.0,33011.0,Hillsborough County,330110006001.0
23127,sg:233da13aaf134cb18a389dbb6c3d7800,Dunkin',NH,3275,722515.0,73,7.0,"{""<5"":8,""5-20"":64,""21-60"":1,""61-240"":0,"">240"":0}",43.179749,-71.488499,NH,33.0,33013.0,Merrimack County,330130032001.0
23531,sg:316ec65da3424e559145bf71e091ea7d,Roto Rooter Plumbing & Water Cleanup,NH,3103,444130.0,8,49.0,"{""<5"":0,""5-20"":3,""21-60"":1,""61-240"":3,"">240"":1}",42.959933,-71.434426,NH,33.0,33011.0,Hillsborough County,330110025002.0
23765,sg:3927f9e667614c4fb1c7b2938e897790,Freight House Consignment,NH,3234,452319.0,6,459.0,"{""<5"":0,""5-20"":0,""21-60"":0,""61-240"":1,"">240"":5}",43.227864000000004,-71.354129,NH,33.0,33013.0,Merrimack County,330130340001.0
23836,sg:3ba190a98eda40ddb190b3486179312e,Hallmark Cards,NH,3055,453220.0,20,10.5,"{""<5"":2,""5-20"":13,""21-60"":3,""61-240"":1,"">240"":1}",42.839098,-71.666246,NH,33.0,33011.0,Hillsborough County,330110162012.0
24259,sg:490e301096f34542a1d7ed10592ea962,Upper Connecticut Valley Hospital,NH,3576,622110.0,50,127.0,"{""<5"":1,""5-20"":7,""21-60"":9,""61-240"":10,"">240"":23}",44.904496,-71.48096899999999,NH,33.0,33007.0,Coos County,330079502001.0
24389,sg:4dc8254cfff1446a8a2a1fb1da1b1d09,Hunt Community,NH,3060,621610.0,9,212.0,"{""<5"":0,""5-20"":1,""21-60"":1,""61-240"":3,"">240"":4}",42.750408,-71.45894799999999,NH,33.0,33011.0,Hillsborough County,330110107002.0
24534,sg:52d0229d30ed491ca686babd9c9a9623,New London Hospital,NH,3257,622110.0,136,189.0,"{""<5"":0,""5-20"":25,""21-60"":21,""61-240"":31,"">240"":59}",43.420759000000004,-72.000111,NH,33.0,33013.0,Merrimack County,330130410003.0
24916,sg:6101ad95aa754b2fae69de1f14ea0df2,Sisters of Holy Cross,NH,3060,813110.0,26,57.0,"{""<5"":1,""5-20"":4,""21-60"":8,""61-240"":9,"">240"":4}",42.757019,-71.45179300000001,NH,33.0,33011.0,Hillsborough County,330110106002.0
25112,sg:67d7019f03284c349cfad30aed713160,Skinner's Bob Ski & Sports,NH,3255,451110.0,4,17.5,"{""<5"":0,""5-20"":3,""21-60"":1,""61-240"":0,"">240"":0}",43.340917,-72.067777,NH,33.0,33013.0,Merrimack County,330130405004.0
25445,sg:73ee380731104fabbef810c8d68dd60d,Auburn Tavern,NH,3032,722511.0,9,12.0,"{""<5"":1,""5-20"":5,""21-60"":3,""61-240"":0,"">240"":0}",43.023428,-71.364281,NH,33.0,33015.0,Rockingham County,330150040001.0
25534,sg:770630c83e9d4796adf682d430ecd2ed,New Found Wrench & Wax,NH,3222,811192.0,5,259.0,"{""<5"":0,""5-20"":0,""21-60"":0,""61-240"":2,"">240"":3}",43.600797,-71.722981,NH,33.0,33009.0,Grafton County,330099612004.0
25627,sg:7a0891d9a7e34225b32499cc78e55945,Juliano's Italian Pizzeria,NH,3038,722511.0,1,940.0,"{""<5"":0,""5-20"":0,""21-60"":0,""61-240"":0,"">240"":1}",42.88977,-71.314228,NH,33.0,33015.0,Rockingham County,330150037011.0
26031,sg:8846ffe8de874ea6996404820dea94cf,Dunkin',NH,3045,722515.0,61,8.0,"{""<5"":4,""5-20"":47,""21-60"":9,""61-240"":1,"">240"":0}",43.012199,-71.505726,NH,33.0,33011.0,Hillsborough County,330110027022.0
26212,sg:8f04c8d4530f491ea1c6e8eabcfd79ea,Batteries Plus Bulbs,NH,3103,441310.0,57,27.0,"{""<5"":2,""5-20"":24,""21-60"":16,""61-240"":12,"">240"":3}",42.967690999999995,-71.450373,NH,33.0,33011.0,Hillsborough County,330110025004.0
26236,sg:900df2febf8a4291837940a4e94fda68,Thrive Wellness,NH,3031,713940.0,8,11.0,"{""<5"":0,""5-20"":5,""21-60"":0,""61-240"":2,"">240"":1}",42.898578,-71.599025,NH,33.0,33011.0,Hillsborough County,330110151001.0
26602,sg:9c38fddd5a244c02b0524a6a04a54e9b,Murdawg Custom,NH,3864,811111.0,5,533.0,"{""<5"":0,""5-20"":0,""21-60"":0,""61-240"":1,"">240"":4}",43.732172,-71.129345,NH,33.0,33003.0,Carroll County,330039559001.0
26688,sg:9ef359afed014200b2e6893bfef40e85,Sunoco,NH,3254,447110.0,84,9.0,"{""<5"":5,""5-20"":59,""21-60"":11,""61-240"":3,"">240"":6}",43.745705,-71.359955,NH,33.0,33003.0,Carroll County,330039563002.0
27004,sg:aad73ecf4cab47b693762939aa71728f,Premier Physical Therapy,NH,3053,713940.0,11,93.0,"{""<5"":0,""5-20"":3,""21-60"":2,""61-240"":4,"">240"":2}",42.867565,-71.344686,NH,33.0,33015.0,Rockingham County,330150039011.0
27047,sg:ac94a0f5741a496ea9a0fe72fc0dd96f,DaVita,NH,3060,621492.0,39,124.0,"{""<5"":2,""5-20"":11,""21-60"":3,""61-240"":8,"">240"":15}",42.757670000000005,-71.460474,NH,33.0,33011.0,Hillsborough County,330110107002.0
27464,sg:bc0bb21f577748c8b1dc02a1713ea7f5,Granite State Hedgehogs,NH,3235,453910.0,52,35.0,"{""<5"":2,""5-20"":16,""21-60"":15,""61-240"":13,"">240"":6}",43.445141,-71.644924,NH,33.0,33013.0,Merrimack County,330130430024.0
27823,sg:c9df9cd2d27f4724882959d40279dd3b,Cumberland Farms,NH,3060,447110.0,96,7.0,"{""<5"":3,""5-20"":81,""21-60"":7,""61-240"":4,"">240"":1}",42.70247,-71.44019399999999,NH,33.0,33011.0,Hillsborough County,330110111022.0
27831,sg:ca1cd195f8b04fddb27d555cdfcfd06d,The Dental Implant Center of New Hampshire,NH,3301,621210.0,4,28.0,"{""<5"":0,""5-20"":0,""21-60"":4,""61-240"":0,"">240"":0}",43.209604999999996,-71.54052800000001,NH,33.0,33013.0,Merrimack County,330130324003.0
28633,sg:e807a74e559e4fe993ab698e9cfaaaa2,Fiddlehead Farms Marketplace,NH,3878,445110.0,4,13.0,"{""<5"":0,""5-20"":3,""21-60"":1,""61-240"":0,"">240"":0}",43.231615000000005,-70.883155,NH,33.0,33017.0,Strafford County,330170830022.0
28954,sg:f3c6ed3395694473ad704fad6283f805,St Christopher School,NH,3064,611110.0,23,182.0,"{""<5"":0,""5-20"":4,""21-60"":4,""61-240"":5,"">240"":10}",42.772061,-71.472495,NH,33.0,33011.0,Hillsborough County,330110104005.0
29087,sg:f909a1d64be44bbfbfb015b2f3f2d5c1,One Dollar Treasures,NH,3451,453310.0,17,46.0,"{""<5"":0,""5-20"":5,""21-60"":5,""61-240"":6,"">240"":1}",42.786677000000005,-72.484187,NH,33.0,33005.0,Cheshire County,330059716002.0
29422,sg:0458d95795d249b9adcd949baa25d7f6,Ideal Health,NH,3110,446191.0,11,36.0,"{""<5"":0,""5-20"":5,""21-60"":2,""61-240"":2,"">240"":2}",42.947507,-71.478169,NH,33.0,33011.0,Hillsborough County,330110029012.0
29425,sg:047860a8b08f4e9093f1e8155cdca0a5,Gilford Country Store,NH,3249,811192.0,2,8.0,"{""<5"":0,""5-20"":2,""21-60"":0,""61-240"":0,"">240"":0}",43.577779,-71.400655,NH,33.0,33001.0,Belknap County,330019664011.0
29449,sg:05641753426d4f7788de588d913a6bce,Kingswood Golf Club,NH,3894,713910.0,38,48.5,"{""<5"":0,""5-20"":5,""21-60"":19,""61-240"":9,"">240"":5}",43.576946,-71.196821,NH,33.0,33003.0,Carroll County,330039561004.0
29518,sg:07a5c81661c94fae9fffac10648344e5,Mason Elementary School,NH,3048,611110.0,8,148.0,"{""<5"":0,""5-20"":2,""21-60"":0,""61-240"":4,"">240"":2}",42.744146,-71.768185,NH,33.0,33011.0,Hillsborough County,330110185021.0
29783,sg:10b138d0ea5f4ca694f09fccfc697f5b,First Unitarian Society of Exeter,NH,3833,813110.0,4,7.5,"{""<5"":1,""5-20"":3,""21-60"":0,""61-240"":0,"">240"":0}",42.978691,-70.948138,NH,33.0,33015.0,Rockingham County,330151062004.0
29863,sg:1302591168364dd585d6b9b840e0fc54,O'briens II General Store,NH,3801,447110.0,27,7.0,"{""<5"":1,""5-20"":24,""21-60"":1,""61-240"":0,"">240"":1}",43.077213,-70.774114,NH,33.0,33015.0,Rockingham County,330150693002.0
30353,sg:232f2c5a080d40c2a4f095ebe5327b87,South Willow Plaza,NH,3103,531120.0,156,11.0,"{""<5"":5,""5-20"":105,""21-60"":26,""61-240"":9,"">240"":11}",42.953532,-71.439476,NH,33.0,33011.0,Hillsborough County,330110026003.0
30437,sg:25bfa24c9aac4990867e31b3e9b62671,Rick's Motorcycle Enterprise,NH,3865,441228.0,1,582.0,"{""<5"":0,""5-20"":0,""21-60"":0,""61-240"":0,"">240"":1}",42.813962,-71.063645,NH,33.0,33015.0,Rockingham County,330151011004.0
31214,sg:4055c1f63bf64837a17bbbc407cd3f3a,Irving Oil,NH,3874,447110.0,109,6.0,"{""<5"":12,""5-20"":87,""21-60"":7,""61-240"":3,"">240"":0}",42.885148,-70.869937,NH,33.0,33015.0,Rockingham County,330150630012.0
32220,sg:612c2b4370c545b38b8676fc85208636,Connections Physical Therapy,NH,3054,621340.0,5,23.0,"{""<5"":0,""5-20"":2,""21-60"":3,""61-240"":0,"">240"":0}",42.87232,-71.489329,NH,33.0,33011.0,Hillsborough County,330110141002.0
32233,sg:61becfb6dbab44278fbace3a0f0378ea,Sig Sauer,NH,3833,452319.0,53,459.0,"{""<5"":0,""5-20"":7,""21-60"":2,""61-240"":8,"">240"":36}",42.992048,-70.96228,NH,33.0,33015.0,Rockingham County,330150610013.0
32799,sg:73e06c38d8a54aa19a1f44458b8baa22,Walgreens,NH,3042,446110.0,81,9.0,"{""<5"":3,""5-20"":68,""21-60"":7,""61-240"":1,"">240"":2}",43.031212,-71.074149,NH,33.0,33015.0,Rockingham County,330150590001.0
34008,sg:9ed5b9c4a1994b10bbfaa87e5b42ae39,Lafayette Club,NH,3060,721110.0,13,11.0,"{""<5"":0,""5-20"":9,""21-60"":2,""61-240"":1,"">240"":1}",42.760366999999995,-71.46679,NH,33.0,33011.0,Hillsborough County,330110107001.0
34237,sg:a7c3d554eba94fe5a0dcdb2fd643242a,Hampshire Hills Function Center,NH,3055,713940.0,2,19.0,"{""<5"":0,""5-20"":1,""21-60"":1,""61-240"":0,"">240"":0}",42.813955,-71.636666,NH,33.0,33011.0,Hillsborough County,330110162021.0
34572,sg:b4818fb5e2ad4932a2fa71f540fb2e40,XFINITY by Comcast,NH,3801,515210.0,10,13.5,"{""<5"":0,""5-20"":6,""21-60"":2,""61-240"":2,"">240"":0}",43.057199,-70.773236,NH,33.0,33015.0,Rockingham County,330151072002.0
34689,sg:b902956c18a248eeb1e6f509a11b2634,Allioops Flowers and Gifts,NH,3257,453110.0,3,19.0,"{""<5"":0,""5-20"":2,""21-60"":0,""61-240"":1,"">240"":0}",43.413013,-71.982125,NH,33.0,33013.0,Merrimack County,330130410002.0
34789,sg:bd6fc5c14d6241c5b68ebb07c67c8c93,Frontera Tacos &amp Tequila,NH,3063,722511.0,12,22.0,"{""<5"":0,""5-20"":6,""21-60"":3,""61-240"":2,"">240"":1}",42.800191,-71.53698399999999,NH,33.0,33011.0,Hillsborough County,330110102001.0
35288,sg:cfec628578ed4b31aeaa01ca4f2b5ce4,White Crane Martial Arts,NH,3431,713940.0,26,146.5,"{""<5"":0,""5-20"":4,""21-60"":1,""61-240"":17,"">240"":4}",42.934011,-72.27725,NH,33.0,33005.0,Cheshire County,330059711003.0
35519,sg:d8487781b3e542c99822f893fdfb2054,Normenta Jacquith,NH,3222,812112.0,4,6.0,"{""<5"":1,""5-20"":3,""21-60"":0,""61-240"":0,"">240"":0}",43.602353,-71.746111,NH,33.0,33009.0,Grafton County,330099612003.0
35588,sg:da90cb1a15634b9abbb6cbd8f4508b91,Townline Equipment Sales,NH,3781,444130.0,10,27.0,"{""<5"":0,""5-20"":4,""21-60"":2,""61-240"":4,"">240"":0}",43.52065,-72.383935,NH,33.0,33019.0,Sullivan County,330199751003.0
36000,sg:eace02a4f1334c37853dca07d66833dd,Center For Life Management,NH,3038,621111.0,16,41.0,"{""<5"":0,""5-20"":7,""21-60"":2,""61-240"":4,"">240"":3}",42.897978,-71.32345500000001,NH,33.0,33015.0,Rockingham County,330150033021.0
36186,sg:f1118e6580a247b4a0cce15c1c8c5ef0,Econo Lodge,NH,3276,721110.0,3,28.0,"{""<5"":0,""5-20"":1,""21-60"":1,""61-240"":0,"">240"":1}",43.485727000000004,-71.535089,NH,33.0,33001.0,Belknap County,330019655983.0
36629,sg:017ab3a99c554820a6526cc3b79daeb4,Nature's Green Grocer,NH,3458,445110.0,13,92.0,"{""<5"":0,""5-20"":2,""21-60"":2,""61-240"":5,"">240"":4}",42.886773,-71.981992,NH,33.0,33011.0,Hillsborough County,330110230004.0
37499,sg:1de2d2e0ebc24119aa85770f6427579e,Lrghealthcare Community Wellness Center,NH,3246,713940.0,6,63.0,"{""<5"":0,""5-20"":1,""21-60"":2,""61-240"":2,"">240"":1}",43.532406,-71.461449,NH,33.0,33001.0,Belknap County,330019659003.0
37603,sg:217ce98064dd4bc28c7454b80a693c86,TULLEY BUICK GMC,NH,3060,441110.0,36,37.5,"{""<5"":3,""5-20"":11,""21-60"":8,""61-240"":8,"">240"":6}",42.724038,-71.44733000000001,NH,33.0,33011.0,Hillsborough County,330110111021.0
37844,sg:297544e5bea24e5c9580fbeebd74b3e1,Carlyle Place,NH,3110,623312.0,1,22.0,"{""<5"":0,""5-20"":0,""21-60"":1,""61-240"":0,"">240"":0}",42.955672,-71.506366,NH,33.0,33011.0,Hillsborough County,330110029012.0
37878,sg:2a91ac1887594c98a845c6500761f314,Seacoast Self Service Car Wash,NH,3842,811192.0,2,77.0,"{""<5"":0,""5-20"":0,""21-60"":0,""61-240"":2,"">240"":0}",42.944266999999996,-70.83493100000001,NH,33.0,33015.0,Rockingham County,330150650011.0
37939,sg:2c569023c090446798bd3805c324994f,Dunkin',NH,3031,722515.0,3,10.0,"{""<5"":1,""5-20"":1,""21-60"":1,""61-240"":0,"">240"":0}",42.811925,-71.58028399999999,NH,33.0,33011.0,Hillsborough County,330110152004.0
38316,sg:3947366b907e4f1c9455f528a1a05f03,The Seafood King,NH,3101,722511.0,2,248.5,"{""<5"":0,""5-20"":0,""21-60"":1,""61-240"":0,"">240"":1}",42.993365999999995,-71.46269000000001,NH,33.0,33011.0,Hillsborough County,330112004002.0
38328,sg:398ddaef3bf64b3c9198043e2b6981f3,Stratton Free Library,NH,3469,519120.0,21,64.0,"{""<5"":0,""5-20"":5,""21-60"":5,""61-240"":6,"">240"":5}",42.870864000000005,-72.32412099999999,NH,33.0,33005.0,Cheshire County,330059709004.0
38431,sg:3d39c21cabca489bb07c287071f4b9d5,Surface Medical Esthetics,NH,3842,812199.0,2,411.0,"{""<5"":0,""5-20"":0,""21-60"":0,""61-240"":0,"">240"":2}",42.950790000000005,-70.83260600000001,NH,33.0,33015.0,Rockingham County,330150650014.0
38494,sg:3f7e9f9736d94e11bdbb51ac48f7e54c,Yankee Custom Inc,NH,3063,441310.0,14,13.0,"{""<5"":1,""5-20"":7,""21-60"":4,""61-240"":2,"">240"":0}",42.7938,-71.525589,NH,33.0,33011.0,Hillsborough County,330110102001.0
38582,sg:429280c0e0014da88093740fc657fe34,The Home Depot,NH,3106,444130.0,515,20.0,"{""<5"":11,""5-20"":248,""21-60"":193,""61-240"":41,"">240"":22}",43.043690000000005,-71.46033100000001,NH,33.0,33013.0,Merrimack County,330130030013.0
38847,sg:4b229f1ea1284bdbb560cdbb8f14472a,H&R Block,NH,3890,541213.0,3,19.0,"{""<5"":0,""5-20"":2,""21-60"":1,""61-240"":0,"">240"":0}",43.795681,-71.181974,NH,33.0,33003.0,Carroll County,330039559003.0
39113,sg:5477dd77572043529f80271b56b216f0,Granite Shore Power Merrimack Plant,NH,3304,221112.0,2,4.5,"{""<5"":1,""5-20"":1,""21-60"":0,""61-240"":0,"">240"":0}",43.138359,-71.472789,NH,33.0,33013.0,Merrimack County,330130310011.0
39244,sg:596ec513443b46a5bcd83e69b984f755,Aspen Dental Management Inc,NH,3063,621210.0,6,665.0,"{""<5"":0,""5-20"":1,""21-60"":0,""61-240"":1,"">240"":4}",42.7469,-71.45985300000001,NH,33.0,33011.0,Hillsborough County,330110110003.0
39290,sg:5ab4d1e7af6a475fa577a0e8de058714,Conway Family Dental Care,NH,3818,621210.0,2,515.0,"{""<5"":0,""5-20"":0,""21-60"":0,""61-240"":0,"">240"":2}",43.979707,-71.118111,NH,33.0,33003.0,Carroll County,330039553004.0
39604,sg:659edd551d664c8e883335756f207fd7,Dunkin',NH,3256,722515.0,41,5.0,"{""<5"":5,""5-20"":31,""21-60"":3,""61-240"":2,"">240"":0}",43.616799,-71.636923,NH,33.0,33001.0,Belknap County,330019651003.0
39788,sg:6b32ac93e619454c82446f496c1d9614,Cheshire Village Pizza,NH,3431,722511.0,12,12.5,"{""<5"":1,""5-20"":6,""21-60"":0,""61-240"":2,"">240"":3}",42.932798,-72.285771,NH,33.0,33005.0,Cheshire County,330059713004.0
40033,sg:72d7c4ac6cfd40b6876fdd1fbb957d3e,EAI Analytical Labs,NH,3446,621511.0,3,20.0,"{""<5"":0,""5-20"":2,""21-60"":0,""61-240"":1,"">240"":0}",42.899601000000004,-72.309894,NH,33.0,33005.0,Cheshire County,330059709001.0
40213,sg:79e42081fac0489eb5b21dbcb8efc77d,Shibles Family Mattresses,NH,3220,442110.0,12,11.0,"{""<5"":1,""5-20"":7,""21-60"":3,""61-240"":1,"">240"":0}",43.513636,-71.494727,NH,33.0,33001.0,Belknap County,330019658002.0
40230,sg:7a64e52ae35e4015aff0b6204e4b6100,Compare A Quote Insurance Agency,NH,3276,524210.0,9,13.0,"{""<5"":0,""5-20"":5,""21-60"":0,""61-240"":2,"">240"":2}",43.443653999999995,-71.592628,NH,33.0,33001.0,Belknap County,330019655981.0
40307,sg:7d9709ec368c411bab34a40de795b140,VIP Tires & Service,NH,3053,441310.0,16,19.0,"{""<5"":1,""5-20"":9,""21-60"":4,""61-240"":2,"">240"":0}",42.868926,-71.345824,NH,33.0,33015.0,Rockingham County,330150037011.0
41166,sg:9c5af28ee72d4359ac20be78ff72589c,O'neill Rory DMD,NH,3079,621210.0,2,16.0,"{""<5"":0,""5-20"":1,""21-60"":1,""61-240"":0,"">240"":0}",42.775883,-71.250582,NH,33.0,33015.0,Rockingham County,330151003013.0
41296,sg:a17e2b7448b4404d99b9548fc165aab7,Discount Beverages Plus Cigarettes,NH,3818,445310.0,41,21.0,"{""<5"":0,""5-20"":20,""21-60"":8,""61-240"":6,"">240"":7}",44.015963,-71.10999,NH,33.0,33003.0,Carroll County,330039553005.0
41489,sg:a897c51909c347ceb78746a6a1b1b752,Status Auto Werks,NH,3833,811111.0,8,716.0,"{""<5"":0,""5-20"":0,""21-60"":0,""61-240"":2,"">240"":6}",42.978712,-70.961611,NH,33.0,33015.0,Rockingham County,330150610012.0
41546,sg:aa92fbc3b4a94ac0865dec101dcefd77,Phantom Fireworks of Hinsdale,NH,3451,811191.0,1,63.0,"{""<5"":0,""5-20"":0,""21-60"":0,""61-240"":1,"">240"":0}",42.823876,-72.54078,NH,33.0,33005.0,Cheshire County,330059716001.0
41849,sg:b55375bf8049466ab9c710650e372dad,Village Coin Shop,NH,3865,451120.0,4,13.5,"{""<5"":1,""5-20"":2,""21-60"":1,""61-240"":0,"">240"":0}",42.825757,-71.105465,NH,33.0,33015.0,Rockingham County,330151011002.0
42495,sg:cb7f255efcf84ba7a332688e62e38678,St Joseph Regional Catholic School,NH,3079,611110.0,11,9.0,"{""<5"":3,""5-20"":3,""21-60"":2,""61-240"":2,"">240"":1}",42.781383,-71.23400600000001,NH,33.0,33015.0,Rockingham County,330151003012.0
42508,sg:cbefc9bd3a0c48af8c451f8971164ce5,Kettle To Keg Homebrew Beer & Wine Supplies,NH,3275,445310.0,18,32.5,"{""<5"":0,""5-20"":7,""21-60"":3,""61-240"":7,"">240"":1}",43.130936,-71.452626,NH,33.0,33013.0,Merrimack County,330130032005.0
42536,sg:cce158f36c914f56a3f3717a0a8c35ef,Tire Loft Inc,NH,3801,441310.0,15,133.0,"{""<5"":0,""5-20"":6,""21-60"":1,""61-240"":1,"">240"":7}",43.048973,-70.776174,NH,33.0,33015.0,Rockingham County,330151072002.0
42632,sg:d06f14c8ba1b433f9ec34089a5002f9c,Fulchino Vineyard,NH,3049,312130.0,1,27.0,"{""<5"":0,""5-20"":0,""21-60"":1,""61-240"":0,"">240"":0}",42.755024,-71.548422,NH,33.0,33011.0,Hillsborough County,330110171003.0
42842,sg:d8c3e6e9dd354dd1b638175e29f33531,F W Webb Co,NH,3874,444130.0,22,85.5,"{""<5"":0,""5-20"":6,""21-60"":3,""61-240"":6,"">240"":7}",42.878009000000006,-70.87092700000001,NH,33.0,33015.0,Rockingham County,330150630012.0
42883,sg:da4e9eee039d482dbb8133978f1e9576,The Beal House,NH,3561,722511.0,1,9.0,"{""<5"":0,""5-20"":1,""21-60"":0,""61-240"":0,"">240"":0}",44.308677,-71.781502,NH,33.0,33009.0,Grafton County,330099601003.0
43325,sg:eb2a7529f53040ccaf944102e358133f,CrossFit,NH,3253,713940.0,3,22.0,"{""<5"":0,""5-20"":0,""21-60"":2,""61-240"":1,"">240"":0}",43.639895,-71.529911,NH,33.0,33001.0,Belknap County,330019653002.0
43621,sg:f6114ff1ae7a4543bb5a65d21eaf208e,Royal Spice,NH,3431,722511.0,7,13.0,"{""<5"":0,""5-20"":5,""21-60"":0,""61-240"":2,"">240"":0}",42.934124,-72.27936700000001,NH,33.0,33005.0,Cheshire County,330059713004.0
44016,sg:049ecde34f0142f8a53960745134295c,YMCA,NH,3431,624190.0,7,752.0,"{""<5"":0,""5-20"":0,""21-60"":0,""61-240"":0,"">240"":7}",42.906273999999996,-72.262063,NH,33.0,33005.0,Cheshire County,330059709002.0
44295,sg:0d98459d35d340bf96fec7feefc8d5fb,Jenkins N Ross Phys,NH,3301,621111.0,1,549.0,"{""<5"":0,""5-20"":0,""21-60"":0,""61-240"":0,"">240"":1}",43.198978000000004,-71.562278,NH,33.0,33013.0,Merrimack County,330130325001.0
45058,sg:2664cead66a54779b7032c6512e99aca,Genesis HealthCare,NH,3301,621498.0,23,303.0,"{""<5"":2,""5-20"":3,""21-60"":1,""61-240"":4,"">240"":13}",43.194581,-71.559453,NH,33.0,33013.0,Merrimack County,330130325002.0
45161,sg:29f5dbfda6bd4bd198a8ff9e10230449,Jeffrey Brown Waterville Valley Realty,NH,3215,531210.0,10,541.0,"{""<5"":0,""5-20"":1,""21-60"":1,""61-240"":2,"">240"":6}",43.945306,-71.505602,NH,33.0,33009.0,Grafton County,330099604002.0
45199,sg:2b427382d8224f8f96915e3fa4666b72,BERLIN CITY NISSAN,NH,3581,441110.0,69,138.0,"{""<5"":2,""5-20"":17,""21-60"":9,""61-240"":27,"">240"":14}",44.413069,-71.19558599999999,NH,33.0,33007.0,Coos County,330079509003.0
45384,sg:325839d083fb4e089a7367b439724e30,Adult Learning Center Griffin Memorial,NH,3060,624410.0,49,43.0,"{""<5"":1,""5-20"":13,""21-60"":19,""61-240"":3,"">240"":13}",42.756521,-71.45822700000001,NH,33.0,33011.0,Hillsborough County,330110107002.0
45802,sg:40dd89af1ee749b98adcfa21bad5fec3,Greenside Restaurant,NH,3276,722513.0,2,14.0,"{""<5"":0,""5-20"":2,""21-60"":0,""61-240"":0,"">240"":0}",43.468055,-71.547133,NH,33.0,33001.0,Belknap County,330019655983.0
45818,sg:41924c51b9ed452bb31bc9d651398952,Cutler School,NH,3446,611110.0,13,25.0,"{""<5"":0,""5-20"":6,""21-60"":2,""61-240"":4,"">240"":1}",42.870247,-72.331314,NH,33.0,33005.0,Cheshire County,330059709004.0
45940,sg:45695e4ee52c4b34bdc949899b55e11e,Vault Motor Storage,NH,3220,531130.0,5,39.0,"{""<5"":1,""5-20"":1,""21-60"":2,""61-240"":1,"">240"":0}",43.433223,-71.467421,NH,33.0,33001.0,Belknap County,330019658003.0
46082,sg:49e555212b6b44edabeaffa62f884c19,Granite State Baptist Church,NH,3301,813110.0,12,85.0,"{""<5"":0,""5-20"":2,""21-60"":3,""61-240"":3,"">240"":4}",43.210471999999996,-71.482715,NH,33.0,33013.0,Merrimack County,330130441003.0
46113,sg:4b2a82386be449959c4d2a7910d5b17f,Dunkin',NH,3104,722515.0,26,6.5,"{""<5"":3,""5-20"":22,""21-60"":0,""61-240"":1,"">240"":0}",43.009192,-71.396681,NH,33.0,33011.0,Hillsborough County,330110009021.0
46196,sg:4deac8e3a2a149e4a9fe7e79e25c3ee6,Moe's Italian Sandwiches of Portsmouth,NH,3801,722511.0,2,28.0,"{""<5"":0,""5-20"":1,""21-60"":1,""61-240"":0,"">240"":0}",43.077303,-70.757163,NH,33.0,33015.0,Rockingham County,330150691001.0
46279,sg:50c7e57c811440508e3cfd0f508e3853,Dunkin',NH,3878,722515.0,25,7.0,"{""<5"":3,""5-20"":18,""21-60"":2,""61-240"":2,"">240"":0}",43.239191999999996,-70.878425,NH,33.0,33017.0,Strafford County,330170830023.0
46631,sg:5ca6845f436a427880931abc8d107b39,Lakes Region Community College,NH,3246,611310.0,7,18.0,"{""<5"":1,""5-20"":3,""21-60"":2,""61-240"":0,"">240"":1}",43.507837,-71.462489,NH,33.0,33001.0,Belknap County,330019660001.0
46810,sg:622fa7cdea4543cbab766727faaabb35,Enterprize Comics,NH,3431,451120.0,9,52.0,"{""<5"":1,""5-20"":3,""21-60"":1,""61-240"":1,"">240"":3}",42.925013,-72.29420400000001,NH,33.0,33005.0,Cheshire County,330059714021.0
47145,sg:6eed27a176ca44c3af9b443592754507,Naticook Veterinary Hospital,NH,3054,541940.0,6,570.0,"{""<5"":0,""5-20"":0,""21-60"":0,""61-240"":0,"">240"":6}",42.805346,-71.544523,NH,33.0,33011.0,Hillsborough County,330110143003.0
47256,sg:7492798637dd462091d6a781b03af3a1,Dick's Sporting Goods,NH,3874,451110.0,24,10.5,"{""<5"":2,""5-20"":16,""21-60"":3,""61-240"":1,"">240"":2}",42.89261,-70.866517,NH,33.0,33015.0,Rockingham County,330150630022.0
47305,sg:76c465a943b44f3d82c5e92949ea7826,First Congregational Church,NH,3076,813110.0,2,6.0,"{""<5"":1,""5-20"":1,""21-60"":0,""61-240"":0,"">240"":0}",42.733993,-71.32237099999999,NH,33.0,33011.0,Hillsborough County,330112002002.0
47312,sg:76ee14ca09194bffb0064b3a7c6a6660,Pearl Restaurant & Oyster Bar,NH,3458,722511.0,23,10.0,"{""<5"":1,""5-20"":16,""21-60"":2,""61-240"":3,"">240"":1}",42.868218,-71.954553,NH,33.0,33011.0,Hillsborough County,330110230003.0
47791,sg:8752eca1dcee4240bd9e51b3ffa056a8,Cogworks,NH,3440,452319.0,2,40.0,"{""<5"":0,""5-20"":1,""21-60"":0,""61-240"":1,"">240"":0}",43.024389,-71.934984,NH,33.0,33011.0,Hillsborough County,330110250001.0
48162,sg:934c4b2973df4d27ade1f96d358f06a1,McMenamon's Auto Repair & Sales,NH,3261,811111.0,4,10.0,"{""<5"":0,""5-20"":4,""21-60"":0,""61-240"":0,"">240"":0}",43.211752000000004,-71.17956,NH,33.0,33015.0,Rockingham County,330150570002.0
48647,sg:a5994bc0b0e1466a91c15562379c2031,Bubble Bee Tea House,NH,3824,722515.0,4,164.5,"{""<5"":0,""5-20"":0,""21-60"":1,""61-240"":2,"">240"":1}",43.135289,-70.925529,NH,33.0,33017.0,Strafford County,330170802041.0
49352,sg:be9b922e6c7d4ce99dc7075aad1b85fc,Custom Sheet Metal,NH,3109,441222.0,12,96.0,"{""<5"":0,""5-20"":2,""21-60"":3,""61-240"":5,"">240"":2}",42.980743,-71.408888,NH,33.0,33011.0,Hillsborough County,330110010003.0
49755,sg:ce3b27688b69466b9fd596f8cfbfb69a,Dodge Farms Ice Cream & Garden Stand,NH,3070,445110.0,21,22.0,"{""<5"":0,""5-20"":10,""21-60"":8,""61-240"":3,"">240"":0}",42.998731,-71.688303,NH,33.0,33011.0,Hillsborough County,330110200001.0
49918,sg:d41a5373ea8b47c687e8614217c03717,Jade Garden,NH,3857,722511.0,19,510.0,"{""<5"":1,""5-20"":4,""21-60"":1,""61-240"":1,"">240"":12}",43.077834,-70.937299,NH,33.0,33015.0,Rockingham County,330150675022.0
49993,sg:d708b6645f5d45278af6b8fc2581401c,Indian Corn Mill,NH,3774,445230.0,1,82.0,"{""<5"":0,""5-20"":0,""21-60"":0,""61-240"":1,"">240"":0}",44.064553000000004,-72.048221,NH,33.0,33009.0,Grafton County,330099606002.0
50533,sg:ea2a88d6d2604ef881b19b7b76d2309f,Merrimack Valley Montessori School,NH,3079,611110.0,5,217.0,"{""<5"":0,""5-20"":0,""21-60"":2,""61-240"":2,"">240"":1}",42.76061,-71.25623,NH,33.0,33015.0,Rockingham County,330151003023.0
50953,sg:fa1ef1b54366440ea21406f9c5c63e44,City Of Nashua Fire And Rescue Station 3,NH,3062,922160.0,5,164.0,"{""<5"":0,""5-20"":1,""21-60"":1,""61-240"":1,"">240"":2}",42.70847,-71.461414,NH,33.0,33011.0,Hillsborough County,330110112001.0
51481,sg:0b5d962e300d4c69beb0236293432b73,GNC (General Nutrition Centers),NH,3860,446191.0,1,6.0,"{""<5"":0,""5-20"":1,""21-60"":0,""61-240"":0,"">240"":0}",44.020672999999995,-71.116966,NH,33.0,33003.0,Carroll County,330039553004.0
51767,sg:152892d01b114d31875fdd6ffd1e557f,Eastern Sports Center,NH,3865,713940.0,13,60.0,"{""<5"":0,""5-20"":3,""21-60"":4,""61-240"":6,"">240"":0}",42.853394,-71.098896,NH,33.0,33015.0,Rockingham County,330151011003.0
51842,sg:17a0db9459d34d629a948ec3c0579eb0,American Legion Post 114,NH,3825,921190.0,2,16.0,"{""<5"":0,""5-20"":1,""21-60"":1,""61-240"":0,"">240"":0}",43.215973,-71.007689,NH,33.0,33017.0,Strafford County,330170850004.0
51849,sg:17ca0d08a3b14ac8af228f64c8be8cd2,Aubuchon Hardware,NH,3275,444130.0,34,20.0,"{""<5"":1,""5-20"":16,""21-60"":5,""61-240"":4,"">240"":8}",43.126815,-71.443436,NH,33.0,33013.0,Merrimack County,330130031003.0
52497,sg:2ce7e502e57540fca99a188f90d76224,Central Rivers Power NH Hooksett Plant,NH,3106,221111.0,2,8.5,"{""<5"":0,""5-20"":2,""21-60"":0,""61-240"":0,"">240"":0}",43.095273,-71.460759,NH,33.0,33013.0,Merrimack County,330130030012.0
53188,sg:42f2fc3b8b974250956a57f58ea90578,The Country Club For Kids,NH,3044,611110.0,1,11.0,"{""<5"":0,""5-20"":1,""21-60"":0,""61-240"":0,"">240"":0}",43.003013,-71.154299,NH,33.0,33015.0,Rockingham County,330150540001.0
53306,sg:470b21d31ad2493f8a9ec012ebd7fcbd,The Big Apple Food Stores,NH,3584,445120.0,57,10.0,"{""<5"":2,""5-20"":42,""21-60"":7,""61-240"":3,"">240"":3}",44.496938,-71.57538100000001,NH,33.0,33007.0,Coos County,330079505001.0
53595,sg:50e6a8417c2540d5b9226c0b63371256,Fade Away Barber Shop,NH,3071,812112.0,2,104.5,"{""<5"":0,""5-20"":0,""21-60"":0,""61-240"":2,"">240"":0}",42.758291,-71.85118100000001,NH,33.0,33011.0,Hillsborough County,330110225002.0
53893,sg:5b21bcc05a7243bb83697cfc3eb45124,Happy Family Chinese Restaurant,NH,3234,722511.0,34,12.0,"{""<5"":0,""5-20"":23,""21-60"":7,""61-240"":4,"">240"":0}",43.230081,-71.361448,NH,33.0,33013.0,Merrimack County,330130340001.0
54035,sg:605e672b45514d94b477078cc7d4bbbd,Bald Mountain artists Bluff,NH,3580,712190.0,8,9.5,"{""<5"":1,""5-20"":5,""21-60"":2,""61-240"":0,"">240"":0}",44.177640000000004,-71.702265,NH,33.0,33009.0,Grafton County,330099602001.0
54359,sg:6a6e3f2a946f418aad80d49a498c2538,United States Postal Service (USPS),NH,3280,491110.0,8,45.0,"{""<5"":0,""5-20"":2,""21-60"":2,""61-240"":4,"">240"":0}",43.179988,-72.10083,NH,33.0,33019.0,Sullivan County,330199755003.0
54554,sg:7133c1005c554ae4bb37058adeeeb4bb,My Handyman of Dover Portsmouth and Rochester,NH,3820,444130.0,14,19.5,"{""<5"":1,""5-20"":7,""21-60"":2,""61-240"":4,"">240"":0}",43.186143,-70.874371,NH,33.0,33017.0,Strafford County,330170813003.0
54936,sg:8047ea195dc442d8a71de047e7c5b53e,Sunoco,NH,3833,447110.0,8,8.5,"{""<5"":1,""5-20"":6,""21-60"":1,""61-240"":0,"">240"":0}",42.985141999999996,-70.938141,NH,33.0,33015.0,Rockingham County,330151064001.0
55079,sg:854dd5cc04d747908cedd61eab2c5c19,Your Favorite Decorator,NH,3222,444120.0,5,18.0,"{""<5"":1,""5-20"":2,""21-60"":2,""61-240"":0,"">240"":0}",43.597091999999996,-71.730556,NH,33.0,33009.0,Grafton County,330099612004.0
55084,sg:8581ebce11d940f4949b109cd03d65d5,Camping World,NH,3813,451110.0,22,40.0,"{""<5"":1,""5-20"":4,""21-60"":11,""61-240"":6,"">240"":0}",43.994867,-71.06335,NH,33.0,33003.0,Carroll County,330039554004.0
55845,sg:a2b732667ec943cbadbee04b5ed3173e,Brads Chimney Sweep,NH,3104,811111.0,5,57.0,"{""<5"":0,""5-20"":2,""21-60"":1,""61-240"":2,"">240"":0}",43.009391,-71.462345,NH,33.0,33011.0,Hillsborough County,330110001011.0
55877,sg:a4155335c27147b088fbd1725d268c95,Hannaford Supermarkets,NH,3104,445110.0,201,20.0,"{""<5"":3,""5-20"":102,""21-60"":74,""61-240"":11,"">240"":11}",42.985059,-71.42841700000001,NH,33.0,33011.0,Hillsborough County,330110011002.0
55986,sg:a7f0406ced484d33a8636c0e3ffa1167,Bob's Tire Service,NH,3060,441310.0,46,90.5,"{""<5"":0,""5-20"":18,""21-60"":4,""61-240"":8,"">240"":16}",42.759071,-71.468237,NH,33.0,33011.0,Hillsborough County,330110108003.0
56192,sg:af1fdbf6135d477aa52056c2e16490cd,Robert J LaRocque DDS,NH,3062,621210.0,3,534.0,"{""<5"":0,""5-20"":0,""21-60"":0,""61-240"":0,"">240"":3}",42.735439,-71.485619,NH,33.0,33011.0,Hillsborough County,330110113002.0
56222,sg:b0660f0173f544d5afddf5d019e8d24f,Family Dollar Stores,NH,3743,452319.0,51,16.0,"{""<5"":2,""5-20"":26,""21-60"":10,""61-240"":7,"">240"":6}",43.370512,-72.34040300000001,NH,33.0,33019.0,Sullivan County,330199759021.0
56400,sg:b68d24e040d249e9bbe5ffc8d0ac9ed3,Knightland Interiors,NH,3442,444120.0,11,145.0,"{""<5"":0,""5-20"":1,""21-60"":0,""61-240"":7,"">240"":3}",42.993577,-71.931302,NH,33.0,33011.0,Hillsborough County,330110215003.0
56553,sg:bc173e87c9e64979b2087e710caefad4,Keegan Auto,NH,3862,811111.0,2,706.0,"{""<5"":0,""5-20"":1,""21-60"":0,""61-240"":0,"">240"":1}",42.995129999999996,-70.81743399999999,NH,33.0,33015.0,Rockingham County,330150660002.0
57000,sg:cbf2d1f4a36946c4873dc446dd373156,Bosco Bell Store,NH,3218,447110.0,37,6.0,"{""<5"":7,""5-20"":27,""21-60"":2,""61-240"":1,"">240"":0}",43.331548,-71.302862,NH,33.0,33001.0,Belknap County,330019657003.0
57079,sg:cf072c447d1242f29251a69ddfc33c66,Accidents Happen,NH,3894,811121.0,13,15.0,"{""<5"":3,""5-20"":6,""21-60"":1,""61-240"":2,"">240"":1}",43.598636,-71.208744,NH,33.0,33003.0,Carroll County,330039561002.0
57238,sg:d51feeef21804376834a0fa21dd516d8,Central New England Endodontics,NH,3431,621210.0,23,126.0,"{""<5"":0,""5-20"":4,""21-60"":3,""61-240"":12,"">240"":4}",42.935775,-72.279905,NH,33.0,33005.0,Cheshire County,330059713003.0
57363,sg:da4a03d792e242449d8d4c0e024834a4,Thirsty Owl,NH,3431,722511.0,10,14.5,"{""<5"":0,""5-20"":5,""21-60"":2,""61-240"":1,"">240"":2}",42.928160999999996,-72.283088,NH,33.0,33005.0,Cheshire County,330059714011.0
57569,sg:e19b8f09c36b4ecdb9795288b1c98223,Mom's Garage,NH,3102,811111.0,30,10.0,"{""<5"":1,""5-20"":21,""21-60"":4,""61-240"":4,"">240"":0}",42.994942,-71.481386,NH,33.0,33011.0,Hillsborough County,330110003003.0
57713,sg:e6e90fb001ac4373a7e57581f4a9ea24,Kohl's,NH,3079,452210.0,12,9.5,"{""<5"":1,""5-20"":8,""21-60"":3,""61-240"":0,"">240"":0}",42.767731,-71.221748,NH,33.0,33015.0,Rockingham County,330151003021.0
58386,sg:ff72f081839242e6b7c6aea8d62b991f,Walmart,NH,3431,452319.0,544,21.0,"{""<5"":7,""5-20"":257,""21-60"":213,""61-240"":46,"">240"":21}",42.923881,-72.28650999999999,NH,33.0,33005.0,Cheshire County,330059714012.0
58695,sg:09894c77701e4195800b43a5209b482d,Aroma Joe's,NH,3820,722511.0,47,6.0,"{""<5"":4,""5-20"":38,""21-60"":2,""61-240"":2,"">240"":1}",43.180942,-70.877001,NH,33.0,33017.0,Strafford County,330170812001.0
58712,sg:09ff2062261e484095ce20d61805c584,Breakfast,NH,3842,722511.0,12,51.0,"{""<5"":0,""5-20"":4,""21-60"":2,""61-240"":2,"">240"":4}",42.916067,-70.809563,NH,33.0,33015.0,Rockingham County,330150650071.0
58825,sg:0de0605dab0249069c69384d34402358,Apple House Furniture & Bedding,NH,3303,442110.0,2,150.5,"{""<5"":0,""5-20"":0,""21-60"":0,""61-240"":2,"">240"":0}",43.276425,-71.598295,NH,33.0,33013.0,Merrimack County,330130443003.0
58939,sg:11206a4fd7674b5d99ceae0cf3f608c4,Super 8 by Wyndham Tilton Lake Winnipesaukee,NH,3276,721110.0,10,69.0,"{""<5"":0,""5-20"":3,""21-60"":2,""61-240"":2,"">240"":3}",43.453396000000005,-71.569052,NH,33.0,33001.0,Belknap County,330019655982.0
59015,sg:138c0f9a839b449093a2d979b5907511,Edward Jones,NH,3031,523999.0,4,15.5,"{""<5"":1,""5-20"":1,""21-60"":1,""61-240"":1,"">240"":0}",42.863255,-71.624893,NH,33.0,33011.0,Hillsborough County,330110151002.0
59289,sg:1ca93b5bc9e14a67880c6d9b341a3ad8,Dollar Tree,NH,3054,452319.0,86,11.0,"{""<5"":3,""5-20"":63,""21-60"":12,""61-240"":3,"">240"":5}",42.87211,-71.488686,NH,33.0,33011.0,Hillsborough County,330110141002.0
59408,sg:20d0fed228ae4d82a877b1a0d5813d7d,Let's Play Music & Make Art,NH,3038,451140.0,7,24.0,"{""<5"":0,""5-20"":3,""21-60"":2,""61-240"":2,"">240"":0}",42.898509999999995,-71.26864499999999,NH,33.0,33015.0,Rockingham County,330150033012.0
59451,sg:21ebd018f26b4ef884f4f8d2e37e5415,MacDonald Ray F Insurance Agency,NH,3824,524210.0,2,5.0,"{""<5"":0,""5-20"":2,""21-60"":0,""61-240"":0,"">240"":0}",43.138926,-70.926462,NH,33.0,33017.0,Strafford County,330170802041.0
59526,sg:2444a6cf78ea4d889be6f6c707de5d70,The Pilates Room,NH,3801,713940.0,9,111.0,"{""<5"":0,""5-20"":1,""21-60"":1,""61-240"":5,"">240"":2}",43.078426,-70.759743,NH,33.0,33015.0,Rockingham County,330150691001.0
59627,sg:27486f61756542c588cb4d5694750908,Wheelock Elementary School,NH,3431,611110.0,11,22.0,"{""<5"":0,""5-20"":5,""21-60"":4,""61-240"":1,"">240"":1}",42.926946,-72.27444200000001,NH,33.0,33005.0,Cheshire County,330059714012.0
59830,sg:2ede5934f3fe4ce7819954ebaccd1366,Sovereign Bank,NH,3301,522110.0,29,65.0,"{""<5"":0,""5-20"":7,""21-60"":7,""61-240"":5,"">240"":10}",43.216556,-71.545659,NH,33.0,33013.0,Merrimack County,330130324002.0
60148,sg:3a04e7cf7f094251be0ab096a0f3cf6e,The Coffee Factory,NH,3079,722515.0,1,11.0,"{""<5"":0,""5-20"":1,""21-60"":0,""61-240"":0,"">240"":0}",42.766859000000004,-71.221073,NH,33.0,33015.0,Rockingham County,330151003021.0
60163,sg:3a717f2b212d4600bf278ff83ed8fe15,Josiah Bartlett Elementary School,NH,3812,611110.0,3,261.0,"{""<5"":0,""5-20"":0,""21-60"":0,""61-240"":0,"">240"":3}",44.077459000000005,-71.279809,NH,33.0,33003.0,Carroll County,330039551002.0
60402,sg:422d57c59c7643dca6feceea904d0e9c,Cumberland Farms,NH,3840,447110.0,24,5.0,"{""<5"":10,""5-20"":12,""21-60"":2,""61-240"":0,"">240"":0}",43.035812,-70.842865,NH,33.0,33015.0,Rockingham County,330151075002.0
60417,sg:4289d9be76d44d6999df400e89a68ef3,Groenke Michael J Dr Phys,NH,3246,621111.0,2,292.0,"{""<5"":0,""5-20"":0,""21-60"":1,""61-240"":0,"">240"":1}",43.530297999999995,-71.47210799999999,NH,33.0,33001.0,Belknap County,330019660003.0
61081,sg:5acb212923024369afa1b4935a97e25a,U Haul Moving & Storage at S Willow,NH,3103,532120.0,45,14.0,"{""<5"":1,""5-20"":25,""21-60"":6,""61-240"":4,"">240"":9}",42.966372,-71.450603,NH,33.0,33011.0,Hillsborough County,330110025002.0
61257,sg:61b61253e33e446bb1490f8f63a35fa1,Amethyst Massage Therapy,NH,3109,812199.0,4,6.0,"{""<5"":1,""5-20"":3,""21-60"":0,""61-240"":0,"">240"":0}",42.984943,-71.413398,NH,33.0,33011.0,Hillsborough County,330110010003.0
61366,sg:65f0e76cab754aa2be8145af8b1165aa,Pho Golden Bowl,NH,3103,722511.0,16,24.0,"{""<5"":1,""5-20"":6,""21-60"":4,""61-240"":5,"">240"":0}",42.973321999999996,-71.466188,NH,33.0,33011.0,Hillsborough County,330110019002.0
61695,sg:71e09acac4db41f9b6707c62ef9333b3,PhiLinda b's Take out,NH,3878,722511.0,7,11.0,"{""<5"":1,""5-20"":3,""21-60"":2,""61-240"":1,"">240"":0}",43.254798,-70.869166,NH,33.0,33017.0,Strafford County,330170830014.0
61996,sg:7dc101945d7b4973ba11a76a0fea6ada,Sisters of Mercy,NH,3064,813110.0,2,9.5,"{""<5"":0,""5-20"":2,""21-60"":0,""61-240"":0,"">240"":0}",42.776815,-71.466158,NH,33.0,33011.0,Hillsborough County,330110104003.0
62085,sg:808457756206428ea085c15f7c679b9a,The Barking Dog,NH,3038,453910.0,18,219.5,"{""<5"":0,""5-20"":5,""21-60"":2,""61-240"":5,"">240"":6}",42.852082,-71.274106,NH,33.0,33015.0,Rockingham County,330150036023.0
62155,sg:831572c11b8742cc860afd3dff221e89,The Red Iguana,NH,3827,722511.0,12,92.0,"{""<5"":0,""5-20"":2,""21-60"":2,""61-240"":5,"">240"":3}",42.921839,-70.991935,NH,33.0,33015.0,Rockingham County,330150620001.0
62161,sg:834347e40aed4f8a84f845aab1a53d1f,Windham Town Beach,NH,3087,712190.0,11,19.0,"{""<5"":0,""5-20"":8,""21-60"":3,""61-240"":0,"">240"":0}",42.785507,-71.299154,NH,33.0,33015.0,Rockingham County,330151061023.0
62324,sg:8928c718610749d19dafbc11d8353d36,South Meadow School,NH,3458,611110.0,18,69.5,"{""<5"":0,""5-20"":3,""21-60"":5,""61-240"":4,"">240"":6}",42.906234000000005,-71.938508,NH,33.0,33011.0,Hillsborough County,330110230001.0
62605,sg:927f8f849049456b946dba6f3a577591,CCRM Fertility Boston,NH,3103,621111.0,12,248.0,"{""<5"":0,""5-20"":1,""21-60"":1,""61-240"":3,"">240"":7}",42.983708,-71.43544399999999,NH,33.0,33011.0,Hillsborough County,330110017001.0
62826,sg:9a53c887cc5e44e58465b46cccfe681d,Cornerstone Periodontics and Implants,NH,3301,621210.0,1,11.0,"{""<5"":0,""5-20"":1,""21-60"":0,""61-240"":0,"">240"":0}",43.188385,-71.50030699999999,NH,33.0,33013.0,Merrimack County,330130441001.0
63361,sg:acb84a467b68463c92ceea17491abce0,Adult Learning Center Amherst Street School,NH,3054,624410.0,4,177.5,"{""<5"":0,""5-20"":1,""21-60"":0,""61-240"":2,"">240"":1}",42.887170000000005,-71.475348,NH,33.0,33011.0,Hillsborough County,330110141001.0
63474,sg:b0b70ecda1fc415cb8e822f19f85a730,Butternuts Good Dishes,NH,3894,445110.0,3,16.0,"{""<5"":0,""5-20"":2,""21-60"":1,""61-240"":0,"">240"":0}",43.584955,-71.213088,NH,33.0,33003.0,Carroll County,330039561002.0
63554,sg:b34b3266576e44338adcc83d55b2d098,CrossFit,NH,3053,713940.0,16,83.5,"{""<5"":0,""5-20"":3,""21-60"":3,""61-240"":10,"">240"":0}",42.871396000000004,-71.33613199999999,NH,33.0,33015.0,Rockingham County,330150039011.0
63618,sg:b5552b19a76144879dfe4213f5568000,Portsmouth Toyota,NH,3801,441120.0,15,484.0,"{""<5"":0,""5-20"":1,""21-60"":1,""61-240"":4,"">240"":9}",43.018458,-70.801488,NH,33.0,33015.0,Rockingham County,330151072003.0
63984,sg:c2d92b7fe43b441987bc7e7d901bb295,Hampton Trading Company,NH,3844,453310.0,8,119.0,"{""<5"":0,""5-20"":3,""21-60"":0,""61-240"":3,"">240"":2}",42.917533,-70.862376,NH,33.0,33015.0,Rockingham County,330150640001.0
64131,sg:c79edf04080a480daf765d4b2a5655b7,Elm Wood Center At Claremont,NH,3743,623312.0,19,538.0,"{""<5"":0,""5-20"":1,""21-60"":1,""61-240"":3,"">240"":14}",43.391273999999996,-72.33991800000001,NH,33.0,33019.0,Sullivan County,330199759013.0
64231,sg:cbb4d054b7684d758eb81fda04aee095,CBD American Shaman,NH,3246,722515.0,33,6.0,"{""<5"":6,""5-20"":26,""21-60"":1,""61-240"":0,"">240"":0}",43.555178999999995,-71.456681,NH,33.0,33001.0,Belknap County,330019662002.0
64360,sg:d0bb2fe26b244641b3f62a2cc7981c05,Dartmouth Hitchcock Littleton Cardiology,NH,3561,621111.0,101,147.0,"{""<5"":1,""5-20"":10,""21-60"":24,""61-240"":25,"">240"":41}",44.317947,-71.82552,NH,33.0,33009.0,Grafton County,330099601005.0
64776,sg:dfe49a2cf6b14037affd6b6ed7bff3a6,Harrington Flowers,NH,3053,453110.0,5,126.0,"{""<5"":0,""5-20"":0,""21-60"":2,""61-240"":2,"">240"":1}",42.919756,-71.405394,NH,33.0,33015.0,Rockingham County,330150037031.0
65211,sg:f1443a92f61f449c8febfc06891d9d27,Alton Bay Fire And Rescue Department,NH,3809,922160.0,3,87.0,"{""<5"":0,""5-20"":0,""21-60"":1,""61-240"":2,"">240"":0}",43.367979999999996,-71.03889000000001,NH,33.0,33017.0,Strafford County,330170870003.0
65318,sg:f4b8195c6d614309aafb3f7560a6fa4d,Clear Skin Electrolysis,NH,3051,446120.0,16,34.5,"{""<5"":0,""5-20"":6,""21-60"":4,""61-240"":0,"">240"":6}",42.772095,-71.40810400000001,NH,33.0,33011.0,Hillsborough County,330110121001.0
65657,sg:014c2e7176634e628058b7428d2a5e8e,99 Restaurants,NH,3820,722511.0,15,16.0,"{""<5"":0,""5-20"":8,""21-60"":4,""61-240"":2,"">240"":1}",43.22314,-70.890106,NH,33.0,33017.0,Strafford County,330170816001.0
65674,sg:01fe3d68615c4479b536745f6bd6841f,New Hampshire Liquor and Wine Outlet,NH,3766,445310.0,123,27.0,"{""<5"":2,""5-20"":47,""21-60"":43,""61-240"":13,"">240"":18}",43.67613,-72.25999,NH,33.0,33009.0,Grafton County,330099617003.0
65815,sg:05ce48fe1232401797dfca41ed8b6d97,Rhino Bike Works Inc,NH,3264,451110.0,12,109.0,"{""<5"":0,""5-20"":1,""21-60"":3,""61-240"":5,"">240"":3}",43.768638,-71.68478,NH,33.0,33009.0,Grafton County,330099610001.0
65850,sg:070b6a55b0364ea2839338c7ea6a835a,Professional Audiology,NH,3801,621111.0,5,527.0,"{""<5"":0,""5-20"":0,""21-60"":1,""61-240"":0,"">240"":4}",43.064574,-70.786126,NH,33.0,33015.0,Rockingham County,330151074001.0
65892,sg:080a1955202547f0a2bf0085e2db3c8a,Gulf Oil,NH,3032,447110.0,18,6.0,"{""<5"":2,""5-20"":13,""21-60"":3,""61-240"":0,"">240"":0}",43.004084999999996,-71.34768299999999,NH,33.0,33015.0,Rockingham County,330150040002.0
66029,sg:0cf6476b66bf4cee9c13066f4716eafc,PoofNewSales,NH,3103,532282.0,3,21.0,"{""<5"":0,""5-20"":1,""21-60"":1,""61-240"":1,"">240"":0}",42.897778,-71.44587299999999,NH,33.0,33011.0,Hillsborough County,330110026004.0
66051,sg:0d8cdaae92a545b2975daa20151d6504,Back To Roots Chiropractic & Nutrition,NH,3867,621310.0,3,16.0,"{""<5"":0,""5-20"":2,""21-60"":1,""61-240"":0,"">240"":0}",43.28374,-70.935073,NH,33.0,33017.0,Strafford County,330170841001.0
66193,sg:12458f00eba54a95ad9f3219434ba200,Family Care of Somersworth,NH,3878,621493.0,5,32.0,"{""<5"":1,""5-20"":0,""21-60"":3,""61-240"":1,"">240"":0}",43.245266,-70.875446,NH,33.0,33017.0,Strafford County,330170830024.0
66236,sg:13adda0089ce4546801fc88a5e29c994,Cornerstone Chiropractic & Massage,NH,3431,621310.0,2,5.0,"{""<5"":0,""5-20"":2,""21-60"":0,""61-240"":0,"">240"":0}",42.962299,-72.30466700000001,NH,33.0,33005.0,Cheshire County,330059710002.0
66428,sg:1a61d630c2f142b08de43a3ac75b2a60,Belmont Middle School,NH,3220,611110.0,17,12.0,"{""<5"":2,""5-20"":9,""21-60"":5,""61-240"":1,"">240"":0}",43.4397,-71.480864,NH,33.0,33001.0,Belknap County,330019658003.0
67209,sg:359ccc23e3e945eda217e43d1f304621,Frekey's Dairy Freeze,NH,3258,722515.0,22,34.5,"{""<5"":1,""5-20"":8,""21-60"":7,""61-240"":3,"">240"":3}",43.262701,-71.371873,NH,33.0,33013.0,Merrimack County,330130330001.0
67295,sg:388c1124ee03465f8a3b3cb81978f09f,Farrs Auto Repair,NH,3841,811111.0,1,7.0,"{""<5"":0,""5-20"":1,""21-60"":0,""61-240"":0,"">240"":0}",42.857005,-71.178813,NH,33.0,33015.0,Rockingham County,330151041021.0
67518,sg:40345981f8d445cfaa961275fd01e417,United States Postal Service (USPS),NH,3287,491110.0,3,33.0,"{""<5"":0,""5-20"":1,""21-60"":2,""61-240"":0,"">240"":0}",43.418029,-71.894857,NH,33.0,33013.0,Merrimack County,330130415003.0
67533,sg:409943965a6f45d59253d79899323fbe,Journey Home Thrift,NH,3862,453310.0,25,79.0,"{""<5"":2,""5-20"":9,""21-60"":1,""61-240"":6,"">240"":7}",42.995144,-70.81678000000001,NH,33.0,33015.0,Rockingham County,330150660002.0
67592,sg:428444cffcdb4b138490c03102075b78,Lake Potanipo,NH,3033,721211.0,8,17.5,"{""<5"":0,""5-20"":4,""21-60"":4,""61-240"":0,"">240"":0}",42.733271,-71.663162,NH,33.0,33011.0,Hillsborough County,330110180001.0
67675,sg:44e72e790de74cdebb3e1fe7f8ac9290,Mine Falls Generating Station,NH,3062,221111.0,1,7.0,"{""<5"":0,""5-20"":1,""21-60"":0,""61-240"":0,"">240"":0}",42.753467,-71.500742,NH,33.0,33011.0,Hillsborough County,330110115001.0
68023,sg:4fc0aae169654b69bf6ebb18e136e048,Troy Elementary School,NH,3465,611110.0,14,73.5,"{""<5"":0,""5-20"":3,""21-60"":3,""61-240"":5,"">240"":3}",42.830494,-72.18254300000001,NH,33.0,33005.0,Cheshire County,330059708003.0
68140,sg:53f8a797763e4dc298f725617af448fc,CONTEMPORARY CHRYSLER DODGE JEEP RAM FIAT,NH,3055,441110.0,16,163.0,"{""<5"":1,""5-20"":1,""21-60"":2,""61-240"":7,"">240"":5}",42.8187,-71.64155699999999,NH,33.0,33011.0,Hillsborough County,330110162015.0
68249,sg:57d7175885b64d25865ac8d8ac7bc828,Green Mountain Children's Center Claremont,NH,3801,624410.0,2,43.0,"{""<5"":0,""5-20"":0,""21-60"":1,""61-240"":1,"">240"":0}",43.077065000000005,-70.77652900000001,NH,33.0,33015.0,Rockingham County,330150693002.0
68504,sg:60854a0da3ad4f5c83c0d71cb9be2294,Misty Meadows Herbal Center,NH,3861,531120.0,1,20.0,"{""<5"":0,""5-20"":1,""21-60"":0,""61-240"":0,"">240"":0}",43.116997,-70.97098000000001,NH,33.0,33017.0,Strafford County,330170801002.0
68717,sg:681851b3f7d149e58defb906cb95443f,Lix Ice Cream Parlor,NH,3052,722515.0,28,12.5,"{""<5"":0,""5-20"":18,""21-60"":6,""61-240"":4,"">240"":0}",42.807981,-71.460364,NH,33.0,33011.0,Hillsborough County,330110131004.0
68744,sg:694e2ca9323f403a929901730a97fb0c,Amoskeag Family Dentistry,NH,3102,621210.0,14,432.5,"{""<5"":0,""5-20"":3,""21-60"":0,""61-240"":3,"">240"":8}",42.97838,-71.477411,NH,33.0,33011.0,Hillsborough County,330110023001.0
68784,sg:6b4515faca9f4401a7addfa8a873768c,27 Automotive,NH,3042,811111.0,2,20.0,"{""<5"":0,""5-20"":1,""21-60"":1,""61-240"":0,"">240"":0}",43.040424,-71.096438,NH,33.0,33015.0,Rockingham County,330150590003.0
69565,sg:875cf9505c93447b95a17dcc7fbc21ac,Absolute Archive & Record Management,NH,3045,519120.0,48,110.0,"{""<5"":0,""5-20"":12,""21-60"":7,""61-240"":18,"">240"":11}",42.993565999999994,-71.520894,NH,33.0,33011.0,Hillsborough County,330110028002.0
69611,sg:89422cf432704a4e96d4afbd64729dbc,Above All Collision Center,NH,3301,811121.0,2,10.0,"{""<5"":0,""5-20"":2,""21-60"":0,""61-240"":0,"">240"":0}",43.212806,-71.48454100000001,NH,33.0,33013.0,Merrimack County,330130441003.0
70023,sg:96fae3dd444143e6976b5f5106644e58,True Value Hardware,NH,3835,444130.0,42,28.0,"{""<5"":2,""5-20"":11,""21-60"":16,""61-240"":13,"">240"":0}",43.349136,-71.024377,NH,33.0,33017.0,Strafford County,330170870003.0
70300,sg:a1308e08eb6d48db8cb1bbc83f75b93f,Irving Oil,NH,3110,447110.0,83,8.0,"{""<5"":13,""5-20"":59,""21-60"":6,""61-240"":3,"">240"":2}",42.929317,-71.460601,NH,33.0,33011.0,Hillsborough County,330110029011.0
70378,sg:a3df31480003431e96a9e2bd36f57628,Wolfetrap Grill & Rawbar,NH,3894,722511.0,2,25.0,"{""<5"":0,""5-20"":1,""21-60"":1,""61-240"":0,"">240"":0}",43.588623,-71.213559,NH,33.0,33003.0,Carroll County,330039561002.0
70458,sg:a726727b70db4c1188bc44bb51e21868,Sonshine Preschool And Day Care,NH,3034,624410.0,5,11.0,"{""<5"":1,""5-20"":2,""21-60"":1,""61-240"":0,"">240"":1}",43.062973,-71.288676,NH,33.0,33015.0,Rockingham County,330150500002.0
70685,sg:afc41eeb653f4fb4b18fbdb5d300ac9e,Saint Michael Rectory,NH,3833,813110.0,14,173.0,"{""<5"":0,""5-20"":4,""21-60"":1,""61-240"":4,"">240"":5}",42.977639,-70.955774,NH,33.0,33015.0,Rockingham County,330151062003.0
71298,sg:c582171ed1e547b0b4abe0dd9f539c2d,Nashua Kindergarten,NH,3063,611110.0,1,5.0,"{""<5"":0,""5-20"":1,""21-60"":0,""61-240"":0,"">240"":0}",42.753192,-71.52273000000001,NH,33.0,33011.0,Hillsborough County,330110103012.0
71461,sg:cb28ddd7d2fe4728b5eebbe186ba46be,Healey Auto Repair,NH,3868,441120.0,11,16.0,"{""<5"":0,""5-20"":6,""21-60"":4,""61-240"":0,"">240"":1}",43.325106,-70.97484399999999,NH,33.0,33017.0,Strafford County,330170843001.0
71771,sg:d5ea168e153e4a1799e802885ccb7bd7,Dave's Tri City Towing,NH,3867,488410.0,1,33.0,"{""<5"":0,""5-20"":0,""21-60"":1,""61-240"":0,"">240"":0}",43.306032,-70.976771,NH,33.0,33017.0,Strafford County,330170843003.0
72160,sg:e4b56414da5f4000bf9a338cdc1f8cf1,Kiddie Academy,NH,3087,624410.0,5,515.0,"{""<5"":0,""5-20"":2,""21-60"":0,""61-240"":0,"">240"":3}",42.8044,-71.34983000000001,NH,33.0,33015.0,Rockingham County,330151061014.0
72535,sg:f3825203e16e41148735ce7a48562547,ALDI,NH,3301,445110.0,65,20.0,"{""<5"":0,""5-20"":35,""21-60"":22,""61-240"":5,"">240"":3}",43.226259999999996,-71.487493,NH,33.0,33013.0,Merrimack County,330130329001.0
72585,sg:f5c1afb956544d9882f02dad2515e3a2,House of Jerky,NH,3860,445210.0,2,62.0,"{""<5"":0,""5-20"":0,""21-60"":1,""61-240"":1,"">240"":0}",44.053925,-71.12898299999999,NH,33.0,33003.0,Carroll County,330039553004.0
72948,sg:026b54afa4ba4050b6882ccf3085948c,Haulin Auto Sales,NH,3867,441120.0,9,14.0,"{""<5"":0,""5-20"":5,""21-60"":0,""61-240"":2,"">240"":2}",43.327346,-71.004467,NH,33.0,33017.0,Strafford County,330170846001.0
73434,sg:11d1930ecd0b40bea8388e0cccd5fe11,Pizzeria Roma,NH,3055,722511.0,66,18.0,"{""<5"":1,""5-20"":42,""21-60"":16,""61-240"":5,"">240"":2}",42.825029,-71.623944,NH,33.0,33011.0,Hillsborough County,330110162014.0
74349,sg:3095eb6e9d26472f8f48602534301408,Blue Mist Hardscape,NH,3079,444130.0,6,1222.0,"{""<5"":0,""5-20"":2,""21-60"":0,""61-240"":0,"">240"":4}",42.78647,-71.19273000000001,NH,33.0,33015.0,Rockingham County,330151004005.0
74521,sg:3689c6776f5840c98260f62eea9a75c7,Heritage Corner Market,NH,3261,445110.0,25,7.0,"{""<5"":2,""5-20"":23,""21-60"":0,""61-240"":0,"">240"":0}",43.223465000000004,-71.255309,NH,33.0,33015.0,Rockingham County,330150570003.0
74546,sg:3777fa807a744f698e48c6114d7ccf1f,The Zoo Health Club,NH,3038,713940.0,7,41.0,"{""<5"":0,""5-20"":2,""21-60"":3,""61-240"":0,"">240"":2}",42.901734999999995,-71.33753,NH,33.0,33015.0,Rockingham County,330150033021.0
75031,sg:481c2e8822c24494a2ecee458192442a,The Farm Cafe & Concessions Food Truck,NH,3431,722515.0,1,10.0,"{""<5"":0,""5-20"":1,""21-60"":0,""61-240"":0,"">240"":0}",42.930786,-72.27871800000001,NH,33.0,33005.0,Cheshire County,330059714011.0
75136,sg:4b375ca5013d43d38f503602898373cd,St Edmond's Parish Nurse,NH,3102,813110.0,1,19.0,"{""<5"":0,""5-20"":1,""21-60"":0,""61-240"":0,"">240"":0}",42.995651,-71.484025,NH,33.0,33011.0,Hillsborough County,330110003002.0
75193,sg:4d3792946d3f49a8a61ddcb21e747812,Hectors Fine Foods & Spirits,NH,3246,722511.0,31,21.0,"{""<5"":1,""5-20"":14,""21-60"":7,""61-240"":5,"">240"":4}",43.527389,-71.472589,NH,33.0,33001.0,Belknap County,330019660003.0
75361,sg:52a8c8a13a8f4e6b8e653266fd5bfce5,Roberts Scarlett Pharmacy,NH,3257,446110.0,6,8.5,"{""<5"":0,""5-20"":5,""21-60"":0,""61-240"":0,"">240"":1}",43.423722999999995,-72.00104,NH,33.0,33013.0,Merrimack County,330130410003.0
75465,sg:569294b96dd44ef1aec6484ac40b5185,Bz Discount On the Corner,NH,3842,447110.0,3,51.0,"{""<5"":1,""5-20"":0,""21-60"":1,""61-240"":1,"">240"":0}",42.901098,-70.814605,NH,33.0,33015.0,Rockingham County,330150650082.0
75651,sg:5d64882288a7427499c419f1556849a5,Farnum Center,NH,3103,621330.0,14,201.0,"{""<5"":0,""5-20"":7,""21-60"":0,""61-240"":0,"">240"":7}",42.972854,-71.467261,NH,33.0,33011.0,Hillsborough County,330110019002.0
76103,sg:6d67241fa233481d8f010a5f605d30d0,CBD American Shaman,NH,3053,722515.0,19,13.0,"{""<5"":1,""5-20"":13,""21-60"":2,""61-240"":3,"">240"":0}",42.866402,-71.34917,NH,33.0,33015.0,Rockingham County,330150037011.0
76228,sg:71fc4f4c57084846819e14532f4ad5be,Best Buy,NH,3060,443142.0,2,8.5,"{""<5"":1,""5-20"":1,""21-60"":0,""61-240"":0,"">240"":0}",42.713072,-71.441051,NH,33.0,33011.0,Hillsborough County,330110111022.0
76239,sg:724704e1a61a4ba792285333a3840187,The Magic Mushroom,NH,3743,453991.0,32,10.0,"{""<5"":1,""5-20"":22,""21-60"":7,""61-240"":2,"">240"":0}",43.375746,-72.330163,NH,33.0,33019.0,Sullivan County,330199759011.0
76373,sg:76968238f500483c867c49f864d21298,Colorful Apples Learning Center Hooksett,NH,3106,611110.0,5,27.0,"{""<5"":0,""5-20"":2,""21-60"":1,""61-240"":0,"">240"":2}",43.044274,-71.435781,NH,33.0,33013.0,Merrimack County,330130030062.0
76403,sg:778ac1f8da3c4bd0b515d394003501dd,Pemi Valley Moose Tour,NH,3251,722515.0,13,81.0,"{""<5"":0,""5-20"":2,""21-60"":3,""61-240"":3,"">240"":5}",44.038773,-71.675079,NH,33.0,33009.0,Grafton County,330099604001.0
76859,sg:8830372ded7842e786ed8e70923727a0,Thistle's Mobile Service,NH,3281,811111.0,2,185.5,"{""<5"":0,""5-20"":0,""21-60"":0,""61-240"":1,"">240"":1}",43.033994,-71.687573,NH,33.0,33011.0,Hillsborough County,330110210002.0
76912,sg:89b6519a5d1747c0b0b66ccacf337510,EHC West Hopkinton,NH,3229,221111.0,1,26.0,"{""<5"":0,""5-20"":0,""21-60"":1,""61-240"":0,"">240"":0}",43.189677,-71.748288,NH,33.0,33013.0,Merrimack County,330130390005.0
76942,sg:8a7100b96c274daca8a3630b8b983e61,Towne Square Dental,NH,3053,621210.0,1,121.0,"{""<5"":0,""5-20"":0,""21-60"":0,""61-240"":1,"">240"":0}",42.836205,-71.390936,NH,33.0,33015.0,Rockingham County,330150039021.0
77101,sg:903eb28d453547b58f36d1b307fe6903,Lebanon Middle School,NH,3766,611110.0,2,138.0,"{""<5"":0,""5-20"":0,""21-60"":1,""61-240"":1,"">240"":0}",43.636959000000004,-72.229014,NH,33.0,33009.0,Grafton County,330099618002.0
77107,sg:9055e5fa856d4fe4953704a0b60a08da,Cantore's Pizza,NH,3784,722511.0,15,9.0,"{""<5"":1,""5-20"":8,""21-60"":4,""61-240"":2,"">240"":0}",43.635256,-72.315978,NH,33.0,33009.0,Grafton County,330099617005.0
77369,sg:98a14176f99c43548869514f48ca97e8,Big Lots Stores,NH,3038,452319.0,63,21.0,"{""<5"":0,""5-20"":30,""21-60"":29,""61-240"":3,"">240"":1}",42.893732,-71.323543,NH,33.0,33015.0,Rockingham County,330150034003.0
77484,sg:9cd2eca14fc74acd9e6457897963c7a3,New Hampshire Liquor and Wine Outlet,NH,3060,445310.0,25,9.0,"{""<5"":3,""5-20"":16,""21-60"":5,""61-240"":1,"">240"":0}",42.751823,-71.459765,NH,33.0,33011.0,Hillsborough County,330110107002.0
77761,sg:a79db91307f9426e8ea410df561c2519,Sullivan Tire and Auto Service,NH,3038,441310.0,16,8.0,"{""<5"":1,""5-20"":10,""21-60"":4,""61-240"":1,"">240"":0}",42.898990999999995,-71.332847,NH,33.0,33015.0,Rockingham County,330150033021.0
77901,sg:ac4dc3cfb9b74515bb6cc0be82dcecee,Belmont High School,NH,3220,611110.0,123,32.0,"{""<5"":1,""5-20"":45,""21-60"":35,""61-240"":36,"">240"":6}",43.451085,-71.480165,NH,33.0,33001.0,Belknap County,330019658004.0
77991,sg:afacfe93c7c5491390203d042af4ba26,New England Heart and Vascular Institute,NH,3102,621111.0,97,439.0,"{""<5"":0,""5-20"":6,""21-60"":3,""61-240"":21,"">240"":67}",42.991303,-71.474642,NH,33.0,33011.0,Hillsborough County,330110021001.0
77999,sg:afeef3a30c7145e098e9a1b44a94cb34,Barre Chic,NH,3079,713940.0,22,36.0,"{""<5"":0,""5-20"":7,""21-60"":11,""61-240"":3,"">240"":1}",42.793535,-71.235249,NH,33.0,33015.0,Rockingham County,330151002001.0
78036,sg:b16b14417f864911b6e3951bb8c1279b,Granite State Equine Wellness,NH,3055,812910.0,1,58.0,"{""<5"":0,""5-20"":0,""21-60"":1,""61-240"":0,"">240"":0}",42.849940000000004,-71.66255699999999,NH,33.0,33011.0,Hillsborough County,330110161002.0
78051,sg:b1dbdf53bdc54ed89a91eec2afc56f7b,Oz Land Early Learning Center,NH,3865,624410.0,1,32.0,"{""<5"":0,""5-20"":0,""21-60"":1,""61-240"":0,"">240"":0}",42.852788000000004,-71.098972,NH,33.0,33015.0,Rockingham County,330151011003.0
78069,sg:b264161e08bf44cf8929b1b0e6f533c7,Ireland On the Square,NH,3801,448140.0,1,19.0,"{""<5"":0,""5-20"":1,""21-60"":0,""61-240"":0,"">240"":0}",43.077216,-70.757867,NH,33.0,33015.0,Rockingham County,330150691001.0
78124,sg:b48751a3a10e4e5fa15fb1e962c55c60,Lindt,NH,3885,445292.0,7,18.0,"{""<5"":0,""5-20"":4,""21-60"":1,""61-240"":2,"">240"":0}",42.992399,-70.92841800000001,NH,33.0,33015.0,Rockingham County,330150670004.0
78181,sg:b6803c3953544ba88fae99b078c4775b,Clubhouse Child Care,NH,3038,611110.0,2,59.5,"{""<5"":0,""5-20"":1,""21-60"":0,""61-240"":1,"">240"":0}",42.892232,-71.32222,NH,33.0,33015.0,Rockingham County,330150034003.0
78448,sg:bfcba0ae604945e7b6db3577791dae07,Nashua Sew & Vac,NH,3060,451130.0,14,27.0,"{""<5"":0,""5-20"":6,""21-60"":3,""61-240"":2,"">240"":3}",42.711814000000004,-71.441942,NH,33.0,33011.0,Hillsborough County,330110111022.0
79180,sg:db5388435b1a42d491b66a794b431f26,Han's Food Mart,NH,3103,445110.0,60,41.5,"{""<5"":3,""5-20"":25,""21-60"":6,""61-240"":11,"">240"":15}",42.987097,-71.45282399999999,NH,33.0,33011.0,Hillsborough County,330110016002.0
79650,sg:eefbfb693e384adfb31814e97fa8a313,Fratello's Restaurant Laconia,NH,3246,722511.0,42,37.5,"{""<5"":2,""5-20"":15,""21-60"":8,""61-240"":7,"">240"":10}",43.547483,-71.46226,NH,33.0,33001.0,Belknap County,330019662002.0
80605,sg:10baa1e12af643a0a888fcc744ccb300,Grand Buffet,NH,3063,722511.0,10,18.0,"{""<5"":1,""5-20"":7,""21-60"":2,""61-240"":0,"">240"":0}",42.782326,-71.50393000000001,NH,33.0,33011.0,Hillsborough County,330110102001.0
80944,sg:1b3283ebc66a40089a092002779ba4e6,Taco Bell,NH,3801,722513.0,40,7.5,"{""<5"":5,""5-20"":30,""21-60"":3,""61-240"":2,"">240"":0}",43.033741,-70.781189,NH,33.0,33015.0,Rockingham County,330151072001.0
81021,sg:1d500ebcbc5d4f7faf2eafff70143ffc,The Paper Store,NH,3060,453220.0,110,25.0,"{""<5"":1,""5-20"":45,""21-60"":39,""61-240"":14,"">240"":11}",42.711613,-71.445853,NH,33.0,33011.0,Hillsborough County,330110111022.0
81300,sg:26d3b2e3e5904aa6b306b48ee799255a,Lumber Liquidators,NH,3862,442210.0,12,30.0,"{""<5"":1,""5-20"":5,""21-60"":1,""61-240"":3,"">240"":2}",42.959972,-70.833454,NH,33.0,33015.0,Rockingham County,330150660003.0
81331,sg:27ab43b60b3f4b04972bfbf3ecc19737,Sally Beauty Supply,NH,3060,446120.0,3,6.0,"{""<5"":0,""5-20"":3,""21-60"":0,""61-240"":0,"">240"":0}",42.800288,-71.54044499999999,NH,33.0,33011.0,Hillsborough County,330110102001.0
81412,sg:2a9126afcf8c4bfba6953c076f71d8da,Stoney Brook Veterinary Hospital,NH,3766,541940.0,5,24.0,"{""<5"":0,""5-20"":2,""21-60"":2,""61-240"":1,"">240"":0}",43.636019,-72.2096,NH,33.0,33009.0,Grafton County,330099617001.0
81461,sg:2c92d11f0f6647cfa60dd6fecf1b44c9,Buster's Service Center,NH,3303,441120.0,18,30.5,"{""<5"":2,""5-20"":4,""21-60"":9,""61-240"":3,"">240"":0}",43.284021,-71.603374,NH,33.0,33013.0,Merrimack County,330130380002.0
81693,sg:342666a03ab64c33aa30bc644148e776,Italian Farmhouse,NH,3264,722511.0,11,28.0,"{""<5"":1,""5-20"":3,""21-60"":5,""61-240"":1,"">240"":1}",43.732896999999994,-71.674238,NH,33.0,33009.0,Grafton County,330099610004.0
81793,sg:377283d10e544c5ebf2581b1db514245,Sunoco,NH,3874,447110.0,136,8.0,"{""<5"":12,""5-20"":91,""21-60"":14,""61-240"":11,"">240"":8}",42.895975,-70.870008,NH,33.0,33015.0,Rockingham County,330150630022.0
81922,sg:3af833689d7a417ca476f4e55cbf77d1,Woodland Heights Elementary School,NH,3246,611110.0,14,55.0,"{""<5"":0,""5-20"":4,""21-60"":3,""61-240"":5,"">240"":2}",43.527575,-71.454898,NH,33.0,33001.0,Belknap County,330019659004.0
82132,sg:42b03b0d58f64c2394ff01454c889b40,Windham Rail Trail,NH,3087,712190.0,44,11.0,"{""<5"":5,""5-20"":22,""21-60"":10,""61-240"":7,"">240"":0}",42.843038,-71.297676,NH,33.0,33015.0,Rockingham County,330151061011.0
83178,sg:66ad2599a24c484ba779a0ca936492b5,Moynihan Lumber,NH,3865,444130.0,15,30.0,"{""<5"":1,""5-20"":6,""21-60"":3,""61-240"":4,"">240"":1}",42.842923,-71.10459499999999,NH,33.0,33015.0,Rockingham County,330151011001.0
83344,sg:6c2dd346f19c444a95d1b60a2fa08cd2,Sylvan Learning,NH,3820,611691.0,1,364.0,"{""<5"":0,""5-20"":0,""21-60"":0,""61-240"":0,"">240"":1}",43.151268,-70.84053399999999,NH,33.0,33017.0,Strafford County,330170812002.0
83371,sg:6d3719a4d4044d4cab866c15e293487e,Masons Hall,NH,3246,721110.0,14,30.0,"{""<5"":0,""5-20"":5,""21-60"":3,""61-240"":2,"">240"":4}",43.524457,-71.469436,NH,33.0,33001.0,Belknap County,330019660001.0
83585,sg:74b5bd43c1ba4a99abec38a6bad2cbae,Peabody Supply Co & the Bath Showcase,NH,3060,442299.0,23,21.0,"{""<5"":0,""5-20"":11,""21-60"":3,""61-240"":4,"">240"":5}",42.760684999999995,-71.447254,NH,33.0,33011.0,Hillsborough County,330110106004.0
83697,sg:78baea46dcae47649589dda082ce0413,United States Postal Service (USPS),NH,3874,491110.0,42,9.0,"{""<5"":3,""5-20"":31,""21-60"":6,""61-240"":2,"">240"":0}",42.876745,-70.87211500000001,NH,33.0,33015.0,Rockingham County,330150630012.0
83961,sg:82919df02daa42d3a8ffd1f8898e0440,Keene State College,NH,3431,611310.0,3,51.0,"{""<5"":0,""5-20"":1,""21-60"":1,""61-240"":1,"">240"":0}",42.918238,-72.28165200000001,NH,33.0,33005.0,Cheshire County,330059714013.0
84568,sg:985e8309032d4635b9c5f83ff67c702d,Gu La Haven,NH,3064,722511.0,6,21.0,"{""<5"":0,""5-20"":3,""21-60"":1,""61-240"":0,"">240"":2}",42.764374,-71.460876,NH,33.0,33011.0,Hillsborough County,330110105005.0
85127,sg:ab7e8ee436234a618561c66e37e0f5ed,Elises Quilts,NH,3835,451130.0,4,253.0,"{""<5"":0,""5-20"":1,""21-60"":0,""61-240"":1,"">240"":2}",43.324837,-70.953999,NH,33.0,33017.0,Strafford County,330170842004.0
85571,sg:bc8884767a364384b99564eb02ae00f2,Crowley's Variety & Grill,NH,3835,722511.0,12,5.5,"{""<5"":1,""5-20"":8,""21-60"":2,""61-240"":0,"">240"":1}",43.387734,-71.061996,NH,33.0,33017.0,Strafford County,330170870002.0
85676,sg:bfa81e25417e4bf3871b3c631e9adce8,Northeast Dermatology Associates PC,NH,3833,621111.0,2,8.5,"{""<5"":0,""5-20"":2,""21-60"":0,""61-240"":0,"">240"":0}",42.975235,-70.91024300000001,NH,33.0,33015.0,Rockingham County,330151064002.0
85728,sg:c1a98e9bbae94513a446f0aaa312afd1,Game Time Trivia,NH,3820,532282.0,18,70.5,"{""<5"":0,""5-20"":3,""21-60"":4,""61-240"":5,"">240"":6}",43.127673,-70.840947,NH,33.0,33017.0,Strafford County,330170812002.0
85856,sg:c6fa6e4c65b149b38191d0d8d42ef02e,Darbster Doggy,NH,3258,453910.0,6,25.0,"{""<5"":1,""5-20"":2,""21-60"":3,""61-240"":0,"">240"":0}",43.241405,-71.399945,NH,33.0,33013.0,Merrimack County,330130330002.0
85997,sg:cd68ee0ea72a4211a012768f2bb19fa1,Madison Mustang Academy,NH,3870,624410.0,3,10.0,"{""<5"":0,""5-20"":2,""21-60"":0,""61-240"":1,"">240"":0}",43.005842,-70.805982,NH,33.0,33015.0,Rockingham County,330150710003.0
85998,sg:cd6ce5813f844c0aaf2244a66b2b1b1d,D's Place,NH,3104,722511.0,23,39.0,"{""<5"":2,""5-20"":8,""21-60"":4,""61-240"":7,"">240"":2}",42.989228000000004,-71.440209,NH,33.0,33011.0,Hillsborough County,330110012002.0
86000,sg:cd71c22f4c134127ad8135b5e0d0a4d6,YWCA,NH,3101,713940.0,8,9.5,"{""<5"":0,""5-20"":6,""21-60"":2,""61-240"":0,"">240"":0}",42.992936,-71.461017,NH,33.0,33011.0,Hillsborough County,330112004002.0
86043,sg:cf0e99459494469bb0a29f886bb6716d,Andrea's Artistic Hair Design,NH,3825,812112.0,1,57.0,"{""<5"":0,""5-20"":0,""21-60"":1,""61-240"":0,"">240"":0}",43.19874,-71.117255,NH,33.0,33017.0,Strafford County,330170850002.0
86050,sg:cf4cf2399edd4c3fb4f94638b4099f71,Dan's City Auto Body & Towing Service,NH,3103,488410.0,16,17.5,"{""<5"":0,""5-20"":9,""21-60"":6,""61-240"":0,"">240"":1}",42.940626,-71.42129200000001,NH,33.0,33011.0,Hillsborough County,330110026002.0
86164,sg:d3132fbb6f3348adbf179db2d3f70561,Henry's Collision Center,NH,3103,811121.0,2,5.0,"{""<5"":1,""5-20"":1,""21-60"":0,""61-240"":0,"">240"":0}",42.960143,-71.445112,NH,33.0,33011.0,Hillsborough County,330110025002.0
86224,sg:d4d08079ccb24dd8b8e5f7a91a29aaef,New Hampshire State of Franconia Notch State Park,NH,3580,712190.0,1,9.0,"{""<5"":0,""5-20"":1,""21-60"":0,""61-240"":0,"">240"":0}",44.22286,-71.749454,NH,33.0,33009.0,Grafton County,330099602001.0
86269,sg:d6a87eb3010f44fc81ecb98ad5e0c8c0,El Rincon Zacatecano Taqueria,NH,3101,722511.0,12,152.0,"{""<5"":0,""5-20"":3,""21-60"":1,""61-240"":4,"">240"":4}",42.987415000000006,-71.46265,NH,33.0,33011.0,Hillsborough County,330112004002.0
86445,sg:dcd5a88e5cdd4d86b98978e8747d086f,Eccentric Hair,NH,3842,812113.0,1,357.0,"{""<5"":0,""5-20"":0,""21-60"":0,""61-240"":0,"">240"":1}",42.920028,-70.79929399999999,NH,33.0,33015.0,Rockingham County,330150650071.0
86461,sg:dd80792de7e14cfbacba4a3b37fc2fbe,Schouler Park,NH,3860,712190.0,26,21.5,"{""<5"":1,""5-20"":11,""21-60"":12,""61-240"":2,"">240"":0}",44.051789,-71.127712,NH,33.0,33003.0,Carroll County,330039553004.0
86859,sg:ec6ce325aa3e4fee8963b2ad9b25c1e5,Akwa Marina Yacht Club,NH,3246,441222.0,7,16.0,"{""<5"":0,""5-20"":4,""21-60"":0,""61-240"":2,"">240"":1}",43.611641999999996,-71.463312,NH,33.0,33001.0,Belknap County,330019662004.0
86979,sg:f0eabefadcba43b4a947a247e8dcc809,St Francis Healthcare Center,NH,3246,621610.0,16,188.5,"{""<5"":0,""5-20"":2,""21-60"":3,""61-240"":5,"">240"":6}",43.517828,-71.48181600000001,NH,33.0,33001.0,Belknap County,330019660002.0
87013,sg:f1e27635b191437f80947aaa6544d4b2,Reynolds Glenda C DDS,NH,3220,621210.0,1,7.0,"{""<5"":0,""5-20"":1,""21-60"":0,""61-240"":0,"">240"":0}",43.501593,-71.463925,NH,33.0,33001.0,Belknap County,330019658002.0
87156,sg:f6817dddbb574bb0940e168ac0f73f14,Keller Williams,NH,3894,531210.0,1,4.0,"{""<5"":1,""5-20"":0,""21-60"":0,""61-240"":0,"">240"":0}",43.584553,-71.208345,NH,33.0,33003.0,Carroll County,330039561002.0
87365,sg:fef4711da98b43d5a224950248a9144c,LDS Missionaries,NH,3102,813110.0,106,136.5,"{""<5"":1,""5-20"":18,""21-60"":18,""61-240"":29,"">240"":40}",42.978494,-71.474841,NH,33.0,33011.0,Hillsborough County,330110023001.0
88660,sg:2a80768988424658a4d852f09ddfdfe0,East Kingston Community United Methodist Church,NH,3827,813110.0,7,14.0,"{""<5"":0,""5-20"":4,""21-60"":0,""61-240"":3,"">240"":0}",42.925446,-71.013426,NH,33.0,33015.0,Rockingham County,330150620001.0
88984,sg:35bd7ed1374a46d2beb8c07dd8c50491,Milford Power Equipment,NH,3055,445299.0,17,19.0,"{""<5"":1,""5-20"":8,""21-60"":1,""61-240"":4,"">240"":3}",42.833151,-71.65364699999999,NH,33.0,33011.0,Hillsborough County,330110162011.0
89392,sg:43b86272bcb7475b9cc5f63bbf28b778,BKV Financial PC,NH,3032,541213.0,11,11.0,"{""<5"":1,""5-20"":5,""21-60"":3,""61-240"":1,"">240"":1}",42.998838,-71.343847,NH,33.0,33015.0,Rockingham County,330150040002.0
89781,sg:500dfb5ad0454310bba6bacb47953dfd,Mobil,NH,3431,447110.0,25,7.0,"{""<5"":2,""5-20"":19,""21-60"":1,""61-240"":3,"">240"":0}",42.947551000000004,-72.27121,NH,33.0,33005.0,Cheshire County,330059711005.0
89812,sg:510d557f219d49e69c3c6d0b8faed35c,Silva Family Dentistry,NH,3894,621210.0,6,43.5,"{""<5"":0,""5-20"":1,""21-60"":3,""61-240"":2,"">240"":0}",43.586746999999995,-71.210957,NH,33.0,33003.0,Carroll County,330039561002.0
90227,sg:60588c9dc60445729c372b751b8692f4,Peacock Players,NH,3060,713940.0,10,24.0,"{""<5"":0,""5-20"":5,""21-60"":2,""61-240"":3,"">240"":0}",42.762219,-71.464362,NH,33.0,33011.0,Hillsborough County,330110106001.0
90298,sg:625f8d0b0ce14853bc5b898fe5b18eb0,Kohl's,NH,3063,452210.0,26,7.0,"{""<5"":1,""5-20"":23,""21-60"":1,""61-240"":1,"">240"":0}",42.766217,-71.496773,NH,33.0,33011.0,Hillsborough County,330110103022.0
90456,sg:67d2cd5e1adb488f8c5ebc0c57b313ba,Cartechplus Llc,NH,3865,811111.0,2,8.5,"{""<5"":0,""5-20"":2,""21-60"":0,""61-240"":0,"">240"":0}",42.833511,-71.107248,NH,33.0,33015.0,Rockingham County,330151011001.0
90464,sg:682f61c7e81c4ef8b9e2c878d82a02fd,Artistic Roots,NH,3264,453920.0,23,10.0,"{""<5"":0,""5-20"":16,""21-60"":4,""61-240"":2,"">240"":1}",43.757548,-71.687534,NH,33.0,33009.0,Grafton County,330099610004.0
90634,sg:6e28c1bfb2e54a76a1c63802ee16eb3f,CVS,NH,3874,446110.0,50,9.0,"{""<5"":5,""5-20"":37,""21-60"":7,""61-240"":1,"">240"":0}",42.893737,-70.871449,NH,33.0,33015.0,Rockingham County,330150630022.0
90891,sg:77a192d8d53d4693b1d3a42126d7a71b,Taste of India,NH,3820,722511.0,12,25.5,"{""<5"":1,""5-20"":4,""21-60"":2,""61-240"":4,"">240"":1}",43.197021,-70.872458,NH,33.0,33017.0,Strafford County,330170814001.0
91046,sg:7ceaca1bda374d4ab220d9234618103f,Wolfeboro Insurance,NH,3894,524210.0,5,10.0,"{""<5"":0,""5-20"":4,""21-60"":0,""61-240"":1,"">240"":0}",43.582316999999996,-71.203344,NH,33.0,33003.0,Carroll County,330039561005.0
91152,sg:80a7d225997b4d899c40ad6c29fdd0c9,Miracle-Ear,NH,3062,446199.0,10,8.0,"{""<5"":2,""5-20"":8,""21-60"":0,""61-240"":0,"">240"":0}",42.708414000000005,-71.45695400000001,NH,33.0,33011.0,Hillsborough County,330110112001.0
91305,sg:86d445ad35fd435cb5b29fb2c7f5ffd3,O'Reilly Auto Parts,NH,3576,441310.0,8,7.5,"{""<5"":1,""5-20"":7,""21-60"":0,""61-240"":0,"">240"":0}",44.885548,-71.50633,NH,33.0,33007.0,Coos County,330079502002.0
91865,sg:9b97dd0ef80e401888cebbe00b9b2dbe,Grooming At Tiffany's,NH,3038,453910.0,61,30.0,"{""<5"":2,""5-20"":18,""21-60"":21,""61-240"":17,"">240"":3}",42.876067,-71.299852,NH,33.0,33015.0,Rockingham County,330150036011.0
91917,sg:9d5366abfd5f4d958b7859b5e28ac70e,Manchester NH Guitar Lessons,NH,3103,451140.0,11,38.0,"{""<5"":1,""5-20"":2,""21-60"":6,""61-240"":0,"">240"":2}",42.968964,-71.453053,NH,33.0,33011.0,Hillsborough County,330110025002.0
92055,sg:a2c5d18297b24fe0a120d81a779a7c6f,Nadeau's Subs Salads Wraps,NH,3103,722515.0,25,18.0,"{""<5"":0,""5-20"":14,""21-60"":5,""61-240"":1,"">240"":5}",42.96264,-71.444535,NH,33.0,33011.0,Hillsborough County,330110025002.0
92828,sg:bdf4000d75d4453088e444615dc53b67,Mount Madison,NH,3593,712190.0,1,17.0,"{""<5"":0,""5-20"":1,""21-60"":0,""61-240"":0,"">240"":0}",44.328402000000004,-71.277845,NH,33.0,33007.0,Coos County,330079510002.0
92945,sg:c1c7da86cd02439089899b473890cb74,Vintage Pizza,NH,3109,722511.0,35,23.0,"{""<5"":0,""5-20"":17,""21-60"":9,""61-240"":3,"">240"":6}",42.980831,-71.425833,NH,33.0,33011.0,Hillsborough County,330110011004.0
93548,sg:d69b1ca5ffbd4285ba4fa4ccf0d29b62,Intervale Country Club,NH,3102,713910.0,53,55.0,"{""<5"":1,""5-20"":17,""21-60"":11,""61-240"":13,"">240"":11}",43.02944,-71.482318,NH,33.0,33011.0,Hillsborough County,330110002031.0
93644,sg:da1b993f1eb04efaac895a37623b61dc,Starr Arthur F Rabbi,NH,3104,813110.0,2,270.0,"{""<5"":0,""5-20"":0,""21-60"":0,""61-240"":1,"">240"":1}",42.999317,-71.45587900000001,NH,33.0,33011.0,Hillsborough County,330110008002.0
93724,sg:dd2108788152474cb214ef3280fd5920,A & M Pizza,NH,3079,722511.0,1,18.0,"{""<5"":0,""5-20"":1,""21-60"":0,""61-240"":0,"">240"":0}",42.804759000000004,-71.243619,NH,33.0,33015.0,Rockingham County,330151002001.0
93916,sg:e4465efc37af439998ae22f631850f03,Circle K,NH,3452,445120.0,33,8.0,"{""<5"":2,""5-20"":18,""21-60"":5,""61-240"":5,"">240"":3}",42.812197,-72.02799,NH,33.0,33005.0,Cheshire County,330059705001.0
94064,sg:e97489e2df9a4aaf9ae2ffd6954e15ca,The Paper Store,NH,3865,453220.0,38,16.0,"{""<5"":0,""5-20"":29,""21-60"":7,""61-240"":0,"">240"":2}",42.826128000000004,-71.109533,NH,33.0,33015.0,Rockingham County,330151011002.0
94093,sg:ea91c0c1b6c448628689be7ba39f3795,Newport Montessori School,NH,3458,624410.0,15,369.0,"{""<5"":0,""5-20"":1,""21-60"":0,""61-240"":4,"">240"":10}",42.860013,-71.965327,NH,33.0,33011.0,Hillsborough County,330110230003.0
94459,sg:f6be9b9acbe548069f8f8253d5cc8f87,The Cat Doctor,NH,3062,541940.0,3,80.0,"{""<5"":0,""5-20"":0,""21-60"":1,""61-240"":2,"">240"":0}",42.714619,-71.505629,NH,33.0,33011.0,Hillsborough County,330110114023.0
94582,sg:fb7213c56aed4d6aa0e1837fac676bc7,Keene Country Club,NH,3431,713910.0,20,25.5,"{""<5"":0,""5-20"":8,""21-60"":5,""61-240"":7,"">240"":0}",42.932586,-72.319231,NH,33.0,33005.0,Cheshire County,330059714022.0
95017,sg:0a510ac92aca4980b8642dcd1d62e189,Harlow's Pub,NH,3458,722511.0,1,44.0,"{""<5"":0,""5-20"":0,""21-60"":1,""61-240"":0,"">240"":0}",42.876563,-71.950367,NH,33.0,33011.0,Hillsborough County,330110230004.0
95384,sg:161d44aa0f974cb2984d7d7fd1530103,Ear Nose & Throat Physicians & Surgeons,NH,3103,621111.0,8,17.5,"{""<5"":0,""5-20"":4,""21-60"":4,""61-240"":0,"">240"":0}",42.983337,-71.43503199999999,NH,33.0,33011.0,Hillsborough County,330110017001.0
95598,sg:1d6fe2428c9f4dadb282816ecca38f03,Ocean State Job Lot,NH,3106,452319.0,7,14.0,"{""<5"":0,""5-20"":5,""21-60"":1,""61-240"":0,"">240"":1}",43.054963,-71.442479,NH,33.0,33013.0,Merrimack County,330130030012.0
96098,sg:2ed49fc298be4951bda7950b75ab96c1,Portsmouth Gas Light,NH,3801,722511.0,1,578.0,"{""<5"":0,""5-20"":0,""21-60"":0,""61-240"":0,"">240"":1}",43.078041999999996,-70.757837,NH,33.0,33015.0,Rockingham County,330150691001.0
96135,sg:2fc536455da642fb89e9c5a58b92b214,Seacoast Dental Implant & Oral Surgery Center,NH,3867,621210.0,20,14.0,"{""<5"":1,""5-20"":11,""21-60"":2,""61-240"":3,"">240"":3}",43.308743,-70.989873,NH,33.0,33017.0,Strafford County,330170844001.0
96588,sg:3e8c108310ac45d6b04fbfd1e88f2f48,Lafayette Center,NH,3580,621340.0,32,124.5,"{""<5"":0,""5-20"":5,""21-60"":2,""61-240"":15,"">240"":10}",44.232638,-71.75455500000001,NH,33.0,33009.0,Grafton County,330099602001.0
96636,sg:404b3e441308495fbd71c02bc617f910,Rite Aid,NH,3833,446110.0,28,10.5,"{""<5"":0,""5-20"":23,""21-60"":5,""61-240"":0,"">240"":0}",42.984958,-70.936912,NH,33.0,33015.0,Rockingham County,330151064002.0
96719,sg:42baf4eee2ef452b95e823f9e0caf6f7,Holycross Early Childhood Center,NH,3109,611110.0,5,229.0,"{""<5"":0,""5-20"":1,""21-60"":1,""61-240"":1,"">240"":2}",42.971939,-71.415692,NH,33.0,33011.0,Hillsborough County,330110011005.0
96759,sg:443fd674c9e147fabb529ebdf5ba2fb0,WranglerTires com,NH,3051,441310.0,2,5.5,"{""<5"":1,""5-20"":1,""21-60"":0,""61-240"":0,"">240"":0}",42.767182,-71.439862,NH,33.0,33011.0,Hillsborough County,330110122001.0
96822,sg:4673b99068fa41f38a83a8c89b9378b8,Motel 6,NH,3801,721110.0,23,166.0,"{""<5"":0,""5-20"":4,""21-60"":2,""61-240"":9,"">240"":8}",43.090953000000006,-70.79969,NH,33.0,33015.0,Rockingham County,330151071003.0
96834,sg:46a1ce6daa9449a58aa0de8ae33e2206,King Motor Sales,NH,3833,441120.0,1,58.0,"{""<5"":0,""5-20"":0,""21-60"":1,""61-240"":0,"">240"":0}",42.990279,-70.928187,NH,33.0,33015.0,Rockingham County,330151064002.0
97214,sg:548551d11fb14e1f98102b510d0e2cc1,Concord Antique Gallery,NH,3301,453310.0,6,9.0,"{""<5"":0,""5-20"":5,""21-60"":1,""61-240"":0,"">240"":0}",43.204886,-71.53479399999999,NH,33.0,33013.0,Merrimack County,330130323001.0
97268,sg:560258fa9d0e4367afc88879b5d4b52e,White Mountain Auto Broker,NH,3598,441120.0,2,33.0,"{""<5"":0,""5-20"":1,""21-60"":0,""61-240"":1,"">240"":0}",44.403108,-71.595485,NH,33.0,33007.0,Coos County,330079511002.0
97343,sg:58b64efbf5dd44fdae453c582dc7beaf,Warren Houghton DMD Perfect Smiles,NH,3063,621210.0,4,159.5,"{""<5"":0,""5-20"":0,""21-60"":0,""61-240"":3,"">240"":1}",42.764761,-71.50053299999999,NH,33.0,33011.0,Hillsborough County,330110103022.0
97786,sg:6905b3c486ef4fc1bd1dc0c813a76ec5,Abby's Closet,NH,3784,448310.0,1,6.0,"{""<5"":0,""5-20"":1,""21-60"":0,""61-240"":0,"">240"":0}",43.628653,-72.32034,NH,33.0,33009.0,Grafton County,330099618005.0
97884,sg:6c348ca585314126a09ab65b60c5d3fb,CrossFit,NH,3874,713940.0,2,42.5,"{""<5"":0,""5-20"":0,""21-60"":2,""61-240"":0,"">240"":0}",42.902238,-70.866582,NH,33.0,33015.0,Rockingham County,330150630022.0
98203,sg:7747b83bdef34eda95d8bee205988b3f,Mad Science,NH,3811,611310.0,2,239.5,"{""<5"":0,""5-20"":0,""21-60"":0,""61-240"":1,"">240"":1}",42.981014,-70.94874300000001,NH,33.0,33015.0,Rockingham County,330151062004.0
98524,sg:83604f184e2b435786681d18312054d8,HomeGoods,NH,3110,442299.0,31,11.0,"{""<5"":0,""5-20"":19,""21-60"":11,""61-240"":1,"">240"":0}",42.957021999999995,-71.481356,NH,33.0,33011.0,Hillsborough County,330110029022.0
98531,sg:83abd70886084a54b20b5e138f3b74e9,Pelham School Age Child Care,NH,3235,624410.0,58,84.0,"{""<5"":0,""5-20"":19,""21-60"":7,""61-240"":15,"">240"":17}",43.442496000000006,-71.647263,NH,33.0,33013.0,Merrimack County,330130430012.0
98542,sg:84136466cebe439fb6e2bbc29c7128e5,The Home Depot,NH,3860,444130.0,153,20.0,"{""<5"":1,""5-20"":76,""21-60"":55,""61-240"":13,"">240"":8}",44.028532,-71.114835,NH,33.0,33003.0,Carroll County,330039553005.0
98859,sg:8ef4556f167c4f1caa8c1ab9b449c535,TD Bank,NH,3054,522110.0,11,8.0,"{""<5"":1,""5-20"":10,""21-60"":0,""61-240"":0,"">240"":0}",42.839006,-71.491388,NH,33.0,33011.0,Hillsborough County,330110141004.0
99226,sg:9d668ddf2f5a47698945e1649e3b9cc7,Bed Bath & Beyond,NH,3031,442299.0,7,6.0,"{""<5"":1,""5-20"":4,""21-60"":2,""61-240"":0,"">240"":0}",42.806314,-71.569307,NH,33.0,33011.0,Hillsborough County,330110152004.0
99532,sg:a757eaa1c6ca48cb90785e6c7a9d7442,Tasya's Kitchen,NH,3878,721211.0,9,708.0,"{""<5"":0,""5-20"":2,""21-60"":0,""61-240"":2,"">240"":5}",43.254777000000004,-70.869185,NH,33.0,33017.0,Strafford County,330170830014.0
99575,sg:a898923e707e4c43817162e1bf54d42d,Signs Now,NH,3076,339950.0,2,22.5,"{""<5"":0,""5-20"":1,""21-60"":1,""61-240"":0,"">240"":0}",42.709998,-71.318025,NH,33.0,33011.0,Hillsborough County,330112002001.0
100717,sg:d1458fbee2f5473c9c8cb9795f3f235a,Brighter Image Screen Printing,NH,3246,451211.0,16,48.0,"{""<5"":0,""5-20"":6,""21-60"":4,""61-240"":4,"">240"":2}",43.535604,-71.462866,NH,33.0,33001.0,Belknap County,330019662001.0
100756,sg:d294b064e8ea490387c8abdc109b4772,Shaker Valley Auto Center,NH,3748,441120.0,3,30.0,"{""<5"":0,""5-20"":1,""21-60"":2,""61-240"":0,"">240"":0}",43.643235,-72.129281,NH,33.0,33009.0,Grafton County,330099615001.0
100913,sg:d8e2c2454b7d4396a909ce4c3ec9d5d3,The Relentless Dragon,NH,3063,451120.0,12,6.5,"{""<5"":1,""5-20"":7,""21-60"":1,""61-240"":3,"">240"":0}",42.792965,-71.521598,NH,33.0,33011.0,Hillsborough County,330110102002.0
101420,sg:ea61b413a2a747b0a5e3885567f8a314,Big Al's Archery & Marine Outfitters,NH,3874,451110.0,11,13.0,"{""<5"":0,""5-20"":8,""21-60"":0,""61-240"":3,"">240"":0}",42.878308000000004,-70.86914399999999,NH,33.0,33015.0,Rockingham County,330150630023.0
101758,sg:f52357d4751049faa1050595bf00d00b,Francestown Volunteer Fire Department,NH,3043,922160.0,14,39.0,"{""<5"":0,""5-20"":6,""21-60"":3,""61-240"":5,"">240"":0}",42.982648,-71.80560799999999,NH,33.0,33011.0,Hillsborough County,330110215002.0
101781,sg:f61937e6c26747cdb42c1775afa737b6,Flag Hill Distillery & Winery,NH,3861,312130.0,6,5.0,"{""<5"":1,""5-20"":5,""21-60"":0,""61-240"":0,"">240"":0}",43.082547999999996,-71.027648,NH,33.0,33017.0,Strafford County,330170805004.0
101928,sg:fbb57987505243f8a9b89a37e5cf3fcb,Sanel Auto Parts,NH,3452,441310.0,3,7.0,"{""<5"":0,""5-20"":2,""21-60"":0,""61-240"":0,"">240"":1}",42.816471,-72.01973100000001,NH,33.0,33005.0,Cheshire County,330059705003.0
102123,sg:0202195672b747dfa1f5307a744b3760,Laniakea Media,NH,3053,512131.0,19,265.0,"{""<5"":0,""5-20"":2,""21-60"":3,""61-240"":3,"">240"":11}",42.91101,-71.378747,NH,33.0,33015.0,Rockingham County,330150037033.0
102202,sg:045219867af148e9900e2ee651bf55ed,Edward Jones,NH,3824,523999.0,9,203.0,"{""<5"":0,""5-20"":1,""21-60"":0,""61-240"":4,"">240"":4}",43.127311,-70.918948,NH,33.0,33017.0,Strafford County,330170801002.0
102319,sg:08c664e4bacd4f64b6a69a73e713c4f5,Back To Life,NH,3449,621111.0,1,12.0,"{""<5"":0,""5-20"":1,""21-60"":0,""61-240"":0,"">240"":0}",42.985671999999994,-71.946246,NH,33.0,33011.0,Hillsborough County,330110240001.0
102445,sg:0c8c5cf8737c4cf6a7f8d0b8fdf05629,Hannaford Supermarkets,NH,3235,445110.0,297,20.0,"{""<5"":4,""5-20"":152,""21-60"":116,""61-240"":12,"">240"":13}",43.449135999999996,-71.623892,NH,33.0,33013.0,Merrimack County,330130430023.0
102576,sg:10689521bb5e4e97b1e0c29b0477f84b,Rosewood Inn at Rye,NH,3870,721110.0,3,1353.0,"{""<5"":0,""5-20"":0,""21-60"":0,""61-240"":0,"">240"":3}",43.009656,-70.804733,NH,33.0,33015.0,Rockingham County,330150710003.0
102677,sg:14183d8be98d46e982609bdabf23b818,Knockerball North Conway & Archery Tag,NH,3818,451140.0,42,30.5,"{""<5"":0,""5-20"":21,""21-60"":1,""61-240"":6,"">240"":14}",43.980495,-71.116438,NH,33.0,33003.0,Carroll County,330039553004.0
102725,sg:156ac397a3d145e8a4c06492c367fbd9,Pizza Nook,NH,3851,722511.0,17,10.0,"{""<5"":1,""5-20"":10,""21-60"":2,""61-240"":4,"">240"":0}",43.413721,-70.987752,NH,33.0,33017.0,Strafford County,330170880003.0
103096,sg:22a7122b1dcd4c3a9632742993b247d0,Joan's Hair Design,NH,3765,812112.0,1,350.0,"{""<5"":0,""5-20"":0,""21-60"":0,""61-240"":0,"">240"":1}",44.039614,-72.059507,NH,33.0,33009.0,Grafton County,330099606002.0
103209,sg:266f4a68af494c778500da101349e1df,Mont Blanc Academy,NH,3106,611110.0,1,96.0,"{""<5"":0,""5-20"":0,""21-60"":0,""61-240"":1,"">240"":0}",43.01658,-71.400217,NH,33.0,33013.0,Merrimack County,330130442003.0
103225,sg:26ec5946bd4b49a8b21455e7a2203c54,Granz Power Equipment,NH,3079,444130.0,8,10.0,"{""<5"":0,""5-20"":7,""21-60"":0,""61-240"":0,"">240"":1}",42.798176,-71.23767,NH,33.0,33015.0,Rockingham County,330151002001.0
103321,sg:2a0e05689c0e461688996f4c488ad5e7,Gendron Fisher Automotive,NH,3602,811111.0,4,34.5,"{""<5"":1,""5-20"":0,""21-60"":2,""61-240"":1,"">240"":0}",43.153591999999996,-72.367499,NH,33.0,33005.0,Cheshire County,330059701003.0
103651,sg:35aa064df52c4463b74737157e502224,Hancock Lumber,NH,3860,442299.0,5,8.0,"{""<5"":0,""5-20"":5,""21-60"":0,""61-240"":0,"">240"":0}",44.046706,-71.12339200000001,NH,33.0,33003.0,Carroll County,330039553006.0
103804,sg:3b204b3166b04097ba7bc985919431be,Premier Tool Repair,NH,3104,238220.0,19,145.0,"{""<5"":0,""5-20"":3,""21-60"":2,""61-240"":7,"">240"":7}",43.005538,-71.460775,NH,33.0,33011.0,Hillsborough County,330110006001.0
104202,sg:49197d6bd60449208a853d2271458661,Mobil,NH,3042,447110.0,31,6.0,"{""<5"":4,""5-20"":26,""21-60"":1,""61-240"":0,"">240"":0}",43.024656,-71.074353,NH,33.0,33015.0,Rockingham County,330150590001.0
104240,sg:4a7cdcc329684131b84d7491d85142fb,Jambs Jewelry,NH,3077,448310.0,42,10.0,"{""<5"":3,""5-20"":31,""21-60"":2,""61-240"":1,"">240"":5}",43.035956,-71.164331,NH,33.0,33015.0,Rockingham County,330150550022.0
104817,sg:5e4c89a522a44bb39a9d7487227dd284,Able Insurance Agency,NH,3301,524210.0,4,74.5,"{""<5"":0,""5-20"":1,""21-60"":0,""61-240"":3,"">240"":0}",43.184906,-71.53442700000001,NH,33.0,33013.0,Merrimack County,330130321002.0
105013,sg:65a3c1e7e3644e2988d962ef43f7020f,Belmont Hall & Restaurant,NH,3103,722511.0,31,47.0,"{""<5"":0,""5-20"":10,""21-60"":6,""61-240"":4,"">240"":11}",42.982956,-71.444687,NH,33.0,33011.0,Hillsborough County,330110017002.0
105120,sg:69dbf41e140b4ad7a8ef2ca4d9ff4920,Monument Square Market,NH,3049,722511.0,6,6.5,"{""<5"":1,""5-20"":4,""21-60"":1,""61-240"":0,"">240"":0}",42.739854,-71.587977,NH,33.0,33011.0,Hillsborough County,330110171002.0
